{"type": "FeatureCollection", "features": [
{"type": "Feature", "geometry": {"type": "Point", "coordinates": [106.98, -6.224]}, "properties": {"name": "Kranji ", "street": " Jl. Sultan Agung ", "number": " No.7"}}
,{"type": "Feature", "geometry": {"type": "Point", "coordinates": [106.855, -6.255]}, "properties": {"name": "Duren Kalibata ", "street": " Jl. Pengadegan ", "number": " 0"}}
,{"type": "Feature", "geometry": {"type": "Point", "coordinates": [106.836, -6.188]}, "properties": {"name": "Menteng Huis ", "street": " Jalan Cikini Raya ", "number": " no. 4"}}
,{"type": "Feature", "geometry": {"type": "Point", "coordinates": [106.835, -6.218]}, "properties": {"name": "Farmer's Market ", "street": " nil ", "number": " 0"}}
,{"type": "Feature", "geometry": {"type": "Point", "coordinates": [106.969, -6.249]}, "properties": {"name": "Superindo ", "street": " nil ", "number": " 0"}}
,{"type": "Feature", "geometry": {"type": "Point", "coordinates": [106.976, -6.247]}, "properties": {"name": "gpib gloria ", "street": " kenanga 4 ", "number": " 08"}}
,{"type": "Feature", "geometry": {"type": "Point", "coordinates": [106.882, -6.215]}, "properties": {"name": "Masjid al Muhajirin ", "street": " nil ", "number": " 0"}}
,{"type": "Feature", "geometry": {"type": "Point", "coordinates": [106.836, -6.29]}, "properties": {"name": "Pegadaian ", "street": " nil ", "number": " 0"}}
,{"type": "Feature", "geometry": {"type": "Point", "coordinates": [106.904, -6.168]}, "properties": {"name": "Kelapa Gading Timur ", "street": " nil ", "number": " 0"}}
,{"type": "Feature", "geometry": {"type": "Point", "coordinates": [106.831, -6.31]}, "properties": {"name": "Kebagusan ", "street": " nil ", "number": " 0"}}
,{"type": "Feature", "geometry": {"type": "Point", "coordinates": [106.839, -6.176]}, "properties": {"name": "Senen ", "street": " nil ", "number": " 0"}}
,{"type": "Feature", "geometry": {"type": "Point", "coordinates": [106.861, -6.159]}, "properties": {"name": "Serdang ", "street": " nil ", "number": " 0"}}
,{"type": "Feature", "geometry": {"type": "Point", "coordinates": [106.87, -6.273]}, "properties": {"name": "Kramat Jati ", "street": " nil ", "number": " 0"}}
,{"type": "Feature", "geometry": {"type": "Point", "coordinates": [106.917, -6.204]}, "properties": {"name": "Jatinegara ", "street": " nil ", "number": " 0"}}
,{"type": "Feature", "geometry": {"type": "Point", "coordinates": [106.847, -6.324]}, "properties": {"name": "Baru ", "street": " nil ", "number": " 0"}}
,{"type": "Feature", "geometry": {"type": "Point", "coordinates": [106.932, -6.31]}, "properties": {"name": "Jatiwarna ", "street": " nil ", "number": " 0"}}
,{"type": "Feature", "geometry": {"type": "Point", "coordinates": [106.945, -6.339]}, "properties": {"name": "Jatisari ", "street": " nil ", "number": " 0"}}
,{"type": "Feature", "geometry": {"type": "Point", "coordinates": [106.831, -6.287]}, "properties": {"name": "Jati Padang ", "street": " nil ", "number": " 0"}}
,{"type": "Feature", "geometry": {"type": "Point", "coordinates": [106.831, -6.185]}, "properties": {"name": "Kebon Sirih ", "street": " nil ", "number": " 0"}}
,{"type": "Feature", "geometry": {"type": "Point", "coordinates": [106.88, -6.229]}, "properties": {"name": "Cipinang Besar Selatan ", "street": " nil ", "number": " 0"}}
,{"type": "Feature", "geometry": {"type": "Point", "coordinates": [106.883, -6.288]}, "properties": {"name": "Pinang Ranti ", "street": " nil ", "number": " 0"}}
,{"type": "Feature", "geometry": {"type": "Point", "coordinates": [106.885, -6.196]}, "properties": {"name": "Rawamangun ", "street": " nil ", "number": " 0"}}
,{"type": "Feature", "geometry": {"type": "Point", "coordinates": [106.901, -6.313]}, "properties": {"name": "Bambu Apus ", "street": " nil ", "number": " 0"}}
,{"type": "Feature", "geometry": {"type": "Point", "coordinates": [106.959, -6.236]}, "properties": {"name": "Bintara ", "street": " nil ", "number": " 0"}}
,{"type": "Feature", "geometry": {"type": "Point", "coordinates": [106.964, -6.292]}, "properties": {"name": "Jatiasih ", "street": " nil ", "number": " 0"}}
,{"type": "Feature", "geometry": {"type": "Point", "coordinates": [106.878, -6.152]}, "properties": {"name": "Sunter Jaya ", "street": " nil ", "number": " 0"}}
,{"type": "Feature", "geometry": {"type": "Point", "coordinates": [106.888, -6.226]}, "properties": {"name": "Cipinang Muara ", "street": " nil ", "number": " 0"}}
,{"type": "Feature", "geometry": {"type": "Point", "coordinates": [106.835, -6.201]}, "properties": {"name": "Menteng ", "street": " nil ", "number": " 0"}}
,{"type": "Feature", "geometry": {"type": "Point", "coordinates": [106.853, -6.335]}, "properties": {"name": "Kalisari ", "street": " nil ", "number": " 0"}}
,{"type": "Feature", "geometry": {"type": "Point", "coordinates": [106.922, -6.187]}, "properties": {"name": "Rawa Terate ", "street": " nil ", "number": " 0"}}
,{"type": "Feature", "geometry": {"type": "Point", "coordinates": [106.833, -6.208]}, "properties": {"name": "Guntur ", "street": " nil ", "number": " 0"}}
,{"type": "Feature", "geometry": {"type": "Point", "coordinates": [106.915, -6.272]}, "properties": {"name": "Jatiwaringin ", "street": " nil ", "number": " 0"}}
,{"type": "Feature", "geometry": {"type": "Point", "coordinates": [106.847, -6.281]}, "properties": {"name": "Pejaten Timur ", "street": " nil ", "number": " 0"}}
,{"type": "Feature", "geometry": {"type": "Point", "coordinates": [106.839, -6.289]}, "properties": {"name": "Pasar Minggu ", "street": " nil ", "number": " 0"}}
,{"type": "Feature", "geometry": {"type": "Point", "coordinates": [106.838, -6.15]}, "properties": {"name": "Gunung Sahari Utara ", "street": " nil ", "number": " 0"}}
,{"type": "Feature", "geometry": {"type": "Point", "coordinates": [106.936, -6.224]}, "properties": {"name": "Malaka Jaya ", "street": " nil ", "number": " 0"}}
,{"type": "Feature", "geometry": {"type": "Point", "coordinates": [106.862, -6.168]}, "properties": {"name": "Cempaka Baru ", "street": " nil ", "number": " 0"}}
,{"type": "Feature", "geometry": {"type": "Point", "coordinates": [106.878, -6.295]}, "properties": {"name": "Dukuh ", "street": " nil ", "number": " 0"}}
,{"type": "Feature", "geometry": {"type": "Point", "coordinates": [106.847, -6.193]}, "properties": {"name": "Kenari ", "street": " nil ", "number": " 0"}}
,{"type": "Feature", "geometry": {"type": "Point", "coordinates": [106.933, -6.242]}, "properties": {"name": "Pondok Kelapa ", "street": " nil ", "number": " 0"}}
,{"type": "Feature", "geometry": {"type": "Point", "coordinates": [106.898, -6.192]}, "properties": {"name": "Jati ", "street": " nil ", "number": " 0"}}
,{"type": "Feature", "geometry": {"type": "Point", "coordinates": [106.859, -6.321]}, "properties": {"name": "Cijantung ", "street": " nil ", "number": " 0"}}
,{"type": "Feature", "geometry": {"type": "Point", "coordinates": [106.976, -6.231]}, "properties": {"name": "Kranji ", "street": " nil ", "number": " 0"}}
,{"type": "Feature", "geometry": {"type": "Point", "coordinates": [106.841, -6.218]}, "properties": {"name": "Menteng Atas ", "street": " nil ", "number": " 0"}}
,{"type": "Feature", "geometry": {"type": "Point", "coordinates": [106.895, -6.156]}, "properties": {"name": "Kelapa Gading Barat ", "street": " nil ", "number": " 0"}}
,{"type": "Feature", "geometry": {"type": "Point", "coordinates": [106.95, -6.32]}, "properties": {"name": "Jatiluhur ", "street": " nil ", "number": " 0"}}
,{"type": "Feature", "geometry": {"type": "Point", "coordinates": [106.849, -6.18]}, "properties": {"name": "Tanah Tinggi ", "street": " nil ", "number": " 0"}}
,{"type": "Feature", "geometry": {"type": "Point", "coordinates": [106.867, -6.221]}, "properties": {"name": "Bali Mester ", "street": " nil ", "number": " 0"}}
,{"type": "Feature", "geometry": {"type": "Point", "coordinates": [106.87, -6.164]}, "properties": {"name": "Sumur Batu ", "street": " nil ", "number": " 0"}}
,{"type": "Feature", "geometry": {"type": "Point", "coordinates": [106.847, -6.202]}, "properties": {"name": "Pegangsaan ", "street": " nil ", "number": " 0"}}
,{"type": "Feature", "geometry": {"type": "Point", "coordinates": [106.852, -6.281]}, "properties": {"name": "Bale Kambang ", "street": " nil ", "number": " 0"}}
,{"type": "Feature", "geometry": {"type": "Point", "coordinates": [106.977, -6.199]}, "properties": {"name": "Medansatria ", "street": " nil ", "number": " 0"}}
,{"type": "Feature", "geometry": {"type": "Point", "coordinates": [106.869, -6.203]}, "properties": {"name": "Utan Kayu Selatan ", "street": " nil ", "number": " 0"}}
,{"type": "Feature", "geometry": {"type": "Point", "coordinates": [106.962, -6.266]}, "properties": {"name": "Jakamulya ", "street": " nil ", "number": " 0"}}
,{"type": "Feature", "geometry": {"type": "Point", "coordinates": [106.936, -6.173]}, "properties": {"name": "Cakung Barat ", "street": " nil ", "number": " 0"}}
,{"type": "Feature", "geometry": {"type": "Point", "coordinates": [106.842, -6.23]}, "properties": {"name": "Menteng Dalam ", "street": " nil ", "number": " 0"}}
,{"type": "Feature", "geometry": {"type": "Point", "coordinates": [106.854, -6.369]}, "properties": {"name": "Tugu ", "street": " nil ", "number": " 0"}}
,{"type": "Feature", "geometry": {"type": "Point", "coordinates": [106.846, -6.184]}, "properties": {"name": "Kramat ", "street": " nil ", "number": " 0"}}
,{"type": "Feature", "geometry": {"type": "Point", "coordinates": [106.917, -6.236]}, "properties": {"name": "Duren Sawit ", "street": " nil ", "number": " 0"}}
,{"type": "Feature", "geometry": {"type": "Point", "coordinates": [106.875, -6.305]}, "properties": {"name": "Rambutan ", "street": " nil ", "number": " 0"}}
,{"type": "Feature", "geometry": {"type": "Point", "coordinates": [106.834, -6.154]}, "properties": {"name": "Kartini ", "street": " nil ", "number": " 0"}}
,{"type": "Feature", "geometry": {"type": "Point", "coordinates": [106.877, -6.256]}, "properties": {"name": "Kebon Pala ", "street": " nil ", "number": " 0"}}
,{"type": "Feature", "geometry": {"type": "Point", "coordinates": [106.868, -6.196]}, "properties": {"name": "Utan Kayu Utara ", "street": " nil ", "number": " 0"}}
,{"type": "Feature", "geometry": {"type": "Point", "coordinates": [106.972, -6.244]}, "properties": {"name": "Jakasampurna ", "street": " nil ", "number": " 0"}}
,{"type": "Feature", "geometry": {"type": "Point", "coordinates": [106.968, -6.333]}, "properties": {"name": "Bojong Kulur ", "street": " nil ", "number": " 0"}}
,{"type": "Feature", "geometry": {"type": "Point", "coordinates": [106.836, -6.323]}, "properties": {"name": "Lenteng Agung ", "street": " nil ", "number": " 0"}}
,{"type": "Feature", "geometry": {"type": "Point", "coordinates": [106.881, -6.218]}, "properties": {"name": "Cipinang Besar Utara ", "street": " nil ", "number": " 0"}}
,{"type": "Feature", "geometry": {"type": "Point", "coordinates": [106.877, -6.276]}, "properties": {"name": "Makasar ", "street": " nil ", "number": " 0"}}
,{"type": "Feature", "geometry": {"type": "Point", "coordinates": [106.857, -6.207]}, "properties": {"name": "Kebon Manggis ", "street": " nil ", "number": " 0"}}
,{"type": "Feature", "geometry": {"type": "Point", "coordinates": [106.881, -6.355]}, "properties": {"name": "Cibubur ", "street": " nil ", "number": " 0"}}
,{"type": "Feature", "geometry": {"type": "Point", "coordinates": [106.939, -6.262]}, "properties": {"name": "Jatibening ", "street": " nil ", "number": " 0"}}
,{"type": "Feature", "geometry": {"type": "Point", "coordinates": [106.902, -6.183]}, "properties": {"name": "Pulo Gadung ", "street": " nil ", "number": " 0"}}
,{"type": "Feature", "geometry": {"type": "Point", "coordinates": [106.841, -6.21]}, "properties": {"name": "Pasar Manggis ", "street": " nil ", "number": " 0"}}
,{"type": "Feature", "geometry": {"type": "Point", "coordinates": [106.942, -6.276]}, "properties": {"name": "Jatikramat ", "street": " nil ", "number": " 0"}}
,{"type": "Feature", "geometry": {"type": "Point", "coordinates": [106.923, -6.36]}, "properties": {"name": "Jatisampurna ", "street": " nil ", "number": " 0"}}
,{"type": "Feature", "geometry": {"type": "Point", "coordinates": [106.854, -6.249]}, "properties": {"name": "Pengadegan ", "street": " nil ", "number": " 0"}}
,{"type": "Feature", "geometry": {"type": "Point", "coordinates": [106.942, -6.227]}, "properties": {"name": "Pondok Kopi ", "street": " nil ", "number": " 0"}}
,{"type": "Feature", "geometry": {"type": "Point", "coordinates": [106.893, -6.206]}, "properties": {"name": "Cipinang ", "street": " nil ", "number": " 0"}}
,{"type": "Feature", "geometry": {"type": "Point", "coordinates": [106.854, -6.156]}, "properties": {"name": "Kebon Kosong ", "street": " nil ", "number": " 0"}}
,{"type": "Feature", "geometry": {"type": "Point", "coordinates": [106.84, -6.191]}, "properties": {"name": "Cikini ", "street": " nil ", "number": " 0"}}
,{"type": "Feature", "geometry": {"type": "Point", "coordinates": [106.904, -6.248]}, "properties": {"name": "Cipinang Melayu ", "street": " nil ", "number": " 0"}}
,{"type": "Feature", "geometry": {"type": "Point", "coordinates": [106.936, -6.205]}, "properties": {"name": "Penggilingan ", "street": " nil ", "number": " 0"}}
,{"type": "Feature", "geometry": {"type": "Point", "coordinates": [106.909, -6.333]}, "properties": {"name": "Cilangkap ", "street": " nil ", "number": " 0"}}
,{"type": "Feature", "geometry": {"type": "Point", "coordinates": [106.924, -6.297]}, "properties": {"name": "Jatirahayu ", "street": " nil ", "number": " 0"}}
,{"type": "Feature", "geometry": {"type": "Point", "coordinates": [106.855, -6.258]}, "properties": {"name": "Rawajati ", "street": " nil ", "number": " 0"}}
,{"type": "Feature", "geometry": {"type": "Point", "coordinates": [106.93, -6.325]}, "properties": {"name": "Jatimurni ", "street": " nil ", "number": " 0"}}
,{"type": "Feature", "geometry": {"type": "Point", "coordinates": [106.835, -6.274]}, "properties": {"name": "Pejaten Barat ", "street": " nil ", "number": " 0"}}
,{"type": "Feature", "geometry": {"type": "Point", "coordinates": [106.907, -6.218]}, "properties": {"name": "Klender ", "street": " nil ", "number": " 0"}}
,{"type": "Feature", "geometry": {"type": "Point", "coordinates": [106.866, -6.29]}, "properties": {"name": "Kampung Tengah ", "street": " nil ", "number": " 0"}}
,{"type": "Feature", "geometry": {"type": "Point", "coordinates": [106.857, -6.186]}, "properties": {"name": "Johar Baru ", "street": " nil ", "number": " 0"}}
,{"type": "Feature", "geometry": {"type": "Point", "coordinates": [106.865, -6.343]}, "properties": {"name": "Pekayon ", "street": " nil ", "number": " 0"}}
,{"type": "Feature", "geometry": {"type": "Point", "coordinates": [106.884, -6.179]}, "properties": {"name": "Kayu Putih ", "street": " nil ", "number": " 0"}}
,{"type": "Feature", "geometry": {"type": "Point", "coordinates": [106.891, -6.313]}, "properties": {"name": "Ceger ", "street": " nil ", "number": " 0"}}
,{"type": "Feature", "geometry": {"type": "Point", "coordinates": [106.952, -6.368]}, "properties": {"name": "Ciangsana ", "street": " nil ", "number": " 0"}}
,{"type": "Feature", "geometry": {"type": "Point", "coordinates": [106.947, -6.295]}, "properties": {"name": "Jatimekar ", "street": " nil ", "number": " 0"}}
,{"type": "Feature", "geometry": {"type": "Point", "coordinates": [106.83, -6.231]}, "properties": {"name": "Kuningan Timur ", "street": " nil ", "number": " 0"}}
,{"type": "Feature", "geometry": {"type": "Point", "coordinates": [106.938, -6.361]}, "properties": {"name": "Jatirangga ", "street": " nil ", "number": " 0"}}
,{"type": "Feature", "geometry": {"type": "Point", "coordinates": [106.849, -6.306]}, "properties": {"name": "Tanjung Barat ", "street": " nil ", "number": " 0"}}
,{"type": "Feature", "geometry": {"type": "Point", "coordinates": [106.903, -6.238]}, "properties": {"name": "Pondok Bambu ", "street": " nil ", "number": " 0"}}
,{"type": "Feature", "geometry": {"type": "Point", "coordinates": [106.848, -6.171]}, "properties": {"name": "Bungur ", "street": " nil ", "number": " 0"}}
,{"type": "Feature", "geometry": {"type": "Point", "coordinates": [106.881, -6.206]}, "properties": {"name": "Pisangan Timur ", "street": " nil ", "number": " 0"}}
,{"type": "Feature", "geometry": {"type": "Point", "coordinates": [106.844, -6.157]}, "properties": {"name": "Gunung Sahari Selatan ", "street": " nil ", "number": " 0"}}
,{"type": "Feature", "geometry": {"type": "Point", "coordinates": [106.894, -6.266]}, "properties": {"name": "Halim Perdana Kusuma ", "street": " nil ", "number": " 0"}}
,{"type": "Feature", "geometry": {"type": "Point", "coordinates": [106.952, -6.205]}, "properties": {"name": "Pulo Gebang ", "street": " nil ", "number": " 0"}}
,{"type": "Feature", "geometry": {"type": "Point", "coordinates": [106.875, -6.326]}, "properties": {"name": "Ciracas ", "street": " nil ", "number": " 0"}}
,{"type": "Feature", "geometry": {"type": "Point", "coordinates": [106.955, -6.248]}, "properties": {"name": "Bintarajaya ", "street": " nil ", "number": " 0"}}
,{"type": "Feature", "geometry": {"type": "Point", "coordinates": [106.84, -6.262]}, "properties": {"name": "Kalibata ", "street": " nil ", "number": " 0"}}
,{"type": "Feature", "geometry": {"type": "Point", "coordinates": [106.832, -6.367]}, "properties": {"name": "Pondok Cina ", "street": " nil ", "number": " 0"}}
,{"type": "Feature", "geometry": {"type": "Point", "coordinates": [106.855, -6.176]}, "properties": {"name": "Galur ", "street": " nil ", "number": " 0"}}
,{"type": "Feature", "geometry": {"type": "Point", "coordinates": [106.929, -6.225]}, "properties": {"name": "Malaka Sari ", "street": " nil ", "number": " 0"}}
,{"type": "Feature", "geometry": {"type": "Point", "coordinates": [106.845, -6.165]}, "properties": {"name": "Kemayoran ", "street": " nil ", "number": " 0"}}
,{"type": "Feature", "geometry": {"type": "Point", "coordinates": [106.957, -6.173]}, "properties": {"name": "Cakung Timur ", "street": " nil ", "number": " 0"}}
,{"type": "Feature", "geometry": {"type": "Point", "coordinates": [106.862, -6.279]}, "properties": {"name": "Batu Ampar ", "street": " nil ", "number": " 0"}}
,{"type": "Feature", "geometry": {"type": "Point", "coordinates": [106.965, -6.221]}, "properties": {"name": "Kota Baru ", "street": " nil ", "number": " 0"}}
,{"type": "Feature", "geometry": {"type": "Point", "coordinates": [106.84, -6.184]}, "properties": {"name": "Kwitang ", "street": " nil ", "number": " 0"}}
,{"type": "Feature", "geometry": {"type": "Point", "coordinates": [106.896, -6.348]}, "properties": {"name": "Munjul ", "street": " nil ", "number": " 0"}}
,{"type": "Feature", "geometry": {"type": "Point", "coordinates": [106.903, -6.201]}, "properties": {"name": "Jatinegara Kaum ", "street": " nil ", "number": " 0"}}
,{"type": "Feature", "geometry": {"type": "Point", "coordinates": [106.861, -6.303]}, "properties": {"name": "Gedong ", "street": " nil ", "number": " 0"}}
,{"type": "Feature", "geometry": {"type": "Point", "coordinates": [106.926, -6.285]}, "properties": {"name": "Jatimakmur ", "street": " nil ", "number": " 0"}}
,{"type": "Feature", "geometry": {"type": "Point", "coordinates": [106.916, -6.163]}, "properties": {"name": "Pegangsaan Dua ", "street": " nil ", "number": " 0"}}
,{"type": "Feature", "geometry": {"type": "Point", "coordinates": [106.867, -6.233]}, "properties": {"name": "Bidara Cina ", "street": " nil ", "number": " 0"}}
,{"type": "Feature", "geometry": {"type": "Point", "coordinates": [106.864, -6.219]}, "properties": {"name": "Kampung Melayu ", "street": " nil ", "number": " 0"}}
,{"type": "Feature", "geometry": {"type": "Point", "coordinates": [106.834, -6.165]}, "properties": {"name": "Pasar Baru ", "street": " nil ", "number": " 0"}}
,{"type": "Feature", "geometry": {"type": "Point", "coordinates": [106.868, -6.25]}, "properties": {"name": "Cawang ", "street": " nil ", "number": " 0"}}
,{"type": "Feature", "geometry": {"type": "Point", "coordinates": [106.846, -6.359]}, "properties": {"name": "Pasir Gunung Selatan ", "street": " nil ", "number": " 0"}}
,{"type": "Feature", "geometry": {"type": "Point", "coordinates": [106.974, -6.268]}, "properties": {"name": "Jakasetia ", "street": " nil ", "number": " 0"}}
,{"type": "Feature", "geometry": {"type": "Point", "coordinates": [106.928, -6.338]}, "properties": {"name": "Jatiranggon ", "street": " nil ", "number": " 0"}}
,{"type": "Feature", "geometry": {"type": "Point", "coordinates": [106.855, -6.245]}, "properties": {"name": "Cikoko ", "street": " nil ", "number": " 0"}}
,{"type": "Feature", "geometry": {"type": "Point", "coordinates": [106.872, -6.37]}, "properties": {"name": "Mekarsari ", "street": " nil ", "number": " 0"}}
,{"type": "Feature", "geometry": {"type": "Point", "coordinates": [106.856, -6.179]}, "properties": {"name": "Kampung Rawa ", "street": " nil ", "number": " 0"}}
,{"type": "Feature", "geometry": {"type": "Point", "coordinates": [106.872, -6.219]}, "properties": {"name": "Rawa Bunga ", "street": " nil ", "number": " 0"}}
,{"type": "Feature", "geometry": {"type": "Point", "coordinates": [106.855, -6.165]}, "properties": {"name": "Utan Panjang ", "street": " nil ", "number": " 0"}}
,{"type": "Feature", "geometry": {"type": "Point", "coordinates": [106.903, -6.293]}, "properties": {"name": "Lubang Buaya ", "street": " nil ", "number": " 0"}}
,{"type": "Feature", "geometry": {"type": "Point", "coordinates": [106.853, -6.192]}, "properties": {"name": "Paseban ", "street": " nil ", "number": " 0"}}
,{"type": "Feature", "geometry": {"type": "Point", "coordinates": [106.907, -6.354]}, "properties": {"name": "Pondok Ranggon ", "street": " nil ", "number": " 0"}}
,{"type": "Feature", "geometry": {"type": "Point", "coordinates": [106.965, -6.184]}, "properties": {"name": "Ujung Menteng ", "street": " nil ", "number": " 0"}}
,{"type": "Feature", "geometry": {"type": "Point", "coordinates": [106.915, -6.313]}, "properties": {"name": "Setu ", "street": " nil ", "number": " 0"}}
,{"type": "Feature", "geometry": {"type": "Point", "coordinates": [106.851, -6.213]}, "properties": {"name": "Manggarai ", "street": " nil ", "number": " 0"}}
,{"type": "Feature", "geometry": {"type": "Point", "coordinates": [106.968, -6.295]}, "properties": {"name": "Jatirasa ", "street": " nil ", "number": " 0"}}
,{"type": "Feature", "geometry": {"type": "Point", "coordinates": [106.862, -6.233]}, "properties": {"name": "Kebon Baru ", "street": " nil ", "number": " 0"}}
,{"type": "Feature", "geometry": {"type": "Point", "coordinates": [106.833, -6.362]}, "properties": {"name": "Purnama Motor ", "street": " Jl. Margonda Raya No. 505, Depok ", "number": " 0"}}
,{"type": "Feature", "geometry": {"type": "Point", "coordinates": [106.833, -6.362]}, "properties": {"name": "Hero Service Station ", "street": " nil ", "number": " 0"}}
,{"type": "Feature", "geometry": {"type": "Point", "coordinates": [106.833, -6.363]}, "properties": {"name": "Dealer Resmi Kawasaki Motor Depok ", "street": " nil ", "number": " 0"}}
,{"type": "Feature", "geometry": {"type": "Point", "coordinates": [106.833, -6.363]}, "properties": {"name": "Dealer Resmi Yamaha Motor Depok ", "street": " nil ", "number": " 0"}}
,{"type": "Feature", "geometry": {"type": "Point", "coordinates": [106.834, -6.365]}, "properties": {"name": "Bengkel Mobil Wijaya Motor ", "street": " nil ", "number": " 0"}}
,{"type": "Feature", "geometry": {"type": "Point", "coordinates": [106.832, -6.358]}, "properties": {"name": "Dealer Resmi Honda Motor Setia Utama ", "street": " nil ", "number": " 0"}}
,{"type": "Feature", "geometry": {"type": "Point", "coordinates": [106.924, -6.222]}, "properties": {"name": "TELKOMSEL ", "street": " nil ", "number": " 0"}}
,{"type": "Feature", "geometry": {"type": "Point", "coordinates": [106.841, -6.197]}, "properties": {"name": "KFC Cikini ", "street": " Jalan Cikini Raya No.119 ", "number": " 0"}}
,{"type": "Feature", "geometry": {"type": "Point", "coordinates": [106.841, -6.198]}, "properties": {"name": "McDonald's ", "street": " nil ", "number": " 0"}}
,{"type": "Feature", "geometry": {"type": "Point", "coordinates": [106.865, -6.328]}, "properties": {"name": "KFC Gelael ", "street": " nil ", "number": " 0"}}
,{"type": "Feature", "geometry": {"type": "Point", "coordinates": [106.863, -6.341]}, "properties": {"name": "Alfamart ", "street": " nil ", "number": " 0"}}
,{"type": "Feature", "geometry": {"type": "Point", "coordinates": [106.902, -6.301]}, "properties": {"name": "Taman Mini Skylift Station ", "street": " nil ", "number": " 0"}}
,{"type": "Feature", "geometry": {"type": "Point", "coordinates": [106.833, -6.222]}, "properties": {"name": "Warung Tekko ", "street": " Jl. HR Rasuna Said ", "number": " Kav C.22 Unit GF 05-06"}}
,{"type": "Feature", "geometry": {"type": "Point", "coordinates": [106.832, -6.221]}, "properties": {"name": "McDonald's ", "street": " Jl. HR Rasuna Said ", "number": " Tel: 14045"}}
,{"type": "Feature", "geometry": {"type": "Point", "coordinates": [106.836, -6.219]}, "properties": {"name": "Aston Rasuna Hotel and Residence ", "street": " Jl.HR Rasuna said ", "number": " 0"}}
,{"type": "Feature", "geometry": {"type": "Point", "coordinates": [106.835, -6.218]}, "properties": {"name": "Kafe Betawi ", "street": " nil ", "number": " 0"}}
,{"type": "Feature", "geometry": {"type": "Point", "coordinates": [106.835, -6.218]}, "properties": {"name": "QBox Cafe ", "street": " nil ", "number": " 0"}}
,{"type": "Feature", "geometry": {"type": "Point", "coordinates": [106.835, -6.218]}, "properties": {"name": "Comics Cafe ", "street": " nil ", "number": " 0"}}
,{"type": "Feature", "geometry": {"type": "Point", "coordinates": [106.832, -6.221]}, "properties": {"name": "Pizza Hut ", "street": " nil ", "number": " 0"}}
,{"type": "Feature", "geometry": {"type": "Point", "coordinates": [106.833, -6.221]}, "properties": {"name": "Wendy's ", "street": " nil ", "number": " 0"}}
,{"type": "Feature", "geometry": {"type": "Point", "coordinates": [106.833, -6.222]}, "properties": {"name": "KFC Pasar Festival ", "street": " nil ", "number": " 0"}}
,{"type": "Feature", "geometry": {"type": "Point", "coordinates": [106.833, -6.222]}, "properties": {"name": "Seven Eleven Pasar Festival ", "street": " Pasar Festival, Jalan Hr. Rasuna Said ", "number": " Kav C 22"}}
,{"type": "Feature", "geometry": {"type": "Point", "coordinates": [106.833, -6.221]}, "properties": {"name": "Dunkin Donuts ", "street": " nil ", "number": " 0"}}
,{"type": "Feature", "geometry": {"type": "Point", "coordinates": [106.833, -6.221]}, "properties": {"name": "Johnny Andrean ", "street": " nil ", "number": " 0"}}
,{"type": "Feature", "geometry": {"type": "Point", "coordinates": [106.837, -6.22]}, "properties": {"name": "Starmart ", "street": " nil ", "number": " 0"}}
,{"type": "Feature", "geometry": {"type": "Point", "coordinates": [106.864, -6.245]}, "properties": {"name": "Pondok Nirwana ", "street": " nil ", "number": " 0"}}
,{"type": "Feature", "geometry": {"type": "Point", "coordinates": [106.833, -6.361]}, "properties": {"name": "Takarajima ", "street": " Jalan Margonda Raya ", "number": " 0"}}
,{"type": "Feature", "geometry": {"type": "Point", "coordinates": [106.834, -6.366]}, "properties": {"name": "Alfa Midi ", "street": " nil ", "number": " 0"}}
,{"type": "Feature", "geometry": {"type": "Point", "coordinates": [106.833, -6.362]}, "properties": {"name": "Alfa Mart ", "street": " nil ", "number": " 0"}}
,{"type": "Feature", "geometry": {"type": "Point", "coordinates": [106.919, -6.285]}, "properties": {"name": "Alfamart ", "street": " nil ", "number": " 0"}}
,{"type": "Feature", "geometry": {"type": "Point", "coordinates": [106.926, -6.235]}, "properties": {"name": "kido hums ", "street": " nil ", "number": " 0"}}
,{"type": "Feature", "geometry": {"type": "Point", "coordinates": [106.834, -6.219]}, "properties": {"name": "Otel Lobby ", "street": " nil ", "number": " 0"}}
,{"type": "Feature", "geometry": {"type": "Point", "coordinates": [106.834, -6.221]}, "properties": {"name": "Food Court Passer Kuningan ", "street": " nil ", "number": " 0"}}
,{"type": "Feature", "geometry": {"type": "Point", "coordinates": [106.833, -6.221]}, "properties": {"name": "JCO Donuts &amp; Cafe ", "street": " nil ", "number": " 0"}}
,{"type": "Feature", "geometry": {"type": "Point", "coordinates": [106.931, -6.232]}, "properties": {"name": "Anugerah Car Wash ", "street": " nil ", "number": " 0"}}
,{"type": "Feature", "geometry": {"type": "Point", "coordinates": [106.922, -6.227]}, "properties": {"name": "BURGER KING ", "street": " nil ", "number": " 0"}}
,{"type": "Feature", "geometry": {"type": "Point", "coordinates": [106.923, -6.22]}, "properties": {"name": "7-Eleven ", "street": " nil ", "number": " 0"}}
,{"type": "Feature", "geometry": {"type": "Point", "coordinates": [106.834, -6.365]}, "properties": {"name": "Ayam Lepas ", "street": " nil ", "number": " 0"}}
,{"type": "Feature", "geometry": {"type": "Point", "coordinates": [106.834, -6.361]}, "properties": {"name": "Bebek Tiktok ", "street": " Jalan Margonda Raya ", "number": " 0"}}
,{"type": "Feature", "geometry": {"type": "Point", "coordinates": [106.833, -6.361]}, "properties": {"name": "Es Pocong ", "street": " Jalan Margonda Raya ", "number": " 0"}}
,{"type": "Feature", "geometry": {"type": "Point", "coordinates": [106.834, -6.361]}, "properties": {"name": "indomaret ", "street": " Jalan Margonda Raya ", "number": " 0"}}
,{"type": "Feature", "geometry": {"type": "Point", "coordinates": [106.833, -6.362]}, "properties": {"name": "Mie Ayam Fajar ", "street": " Jalan Margonda Raya ", "number": " 0"}}
,{"type": "Feature", "geometry": {"type": "Point", "coordinates": [106.834, -6.363]}, "properties": {"name": "Pecel Lele Lela ", "street": " nil ", "number": " 0"}}
,{"type": "Feature", "geometry": {"type": "Point", "coordinates": [106.834, -6.364]}, "properties": {"name": "Pizza Hut Delivery (PHD) ", "street": " nil ", "number": " 0"}}
,{"type": "Feature", "geometry": {"type": "Point", "coordinates": [106.834, -6.366]}, "properties": {"name": "Warung Sate Gajah ", "street": " nil ", "number": " 0"}}
,{"type": "Feature", "geometry": {"type": "Point", "coordinates": [106.85, -6.37]}, "properties": {"name": "Indomaret ", "street": " nil ", "number": " 0"}}
,{"type": "Feature", "geometry": {"type": "Point", "coordinates": [106.862, -6.37]}, "properties": {"name": "Hotel Genggong ", "street": " nil ", "number": " 0"}}
,{"type": "Feature", "geometry": {"type": "Point", "coordinates": [106.834, -6.368]}, "properties": {"name": "Alfamart ", "street": " nil ", "number": " 0"}}
,{"type": "Feature", "geometry": {"type": "Point", "coordinates": [106.834, -6.368]}, "properties": {"name": "DIM SUM ", "street": " nil ", "number": " 0"}}
,{"type": "Feature", "geometry": {"type": "Point", "coordinates": [106.835, -6.368]}, "properties": {"name": "Mushola Al Ikhlas ", "street": " nil ", "number": " 0"}}
,{"type": "Feature", "geometry": {"type": "Point", "coordinates": [106.834, -6.368]}, "properties": {"name": "Rumah Makan Bude ", "street": " nil ", "number": " 0"}}
,{"type": "Feature", "geometry": {"type": "Point", "coordinates": [106.835, -6.367]}, "properties": {"name": "Rumah Makan Padang Sederhana ", "street": " nil ", "number": " 0"}}
,{"type": "Feature", "geometry": {"type": "Point", "coordinates": [106.834, -6.368]}, "properties": {"name": "Sinar ", "street": " nil ", "number": " 0"}}
,{"type": "Feature", "geometry": {"type": "Point", "coordinates": [106.835, -6.368]}, "properties": {"name": "Warnet Redz ", "street": " nil ", "number": " 0"}}
,{"type": "Feature", "geometry": {"type": "Point", "coordinates": [106.835, -6.367]}, "properties": {"name": "Warteg ", "street": " nil ", "number": " 0"}}
,{"type": "Feature", "geometry": {"type": "Point", "coordinates": [106.834, -6.368]}, "properties": {"name": "24 Jam ", "street": " nil ", "number": " 0"}}
,{"type": "Feature", "geometry": {"type": "Point", "coordinates": [106.865, -6.367]}, "properties": {"name": "Mekarsari Government Office ", "street": " nil ", "number": " 0"}}
,{"type": "Feature", "geometry": {"type": "Point", "coordinates": [106.866, -6.365]}, "properties": {"name": "Wisma Hijau ", "street": " nil ", "number": " 0"}}
,{"type": "Feature", "geometry": {"type": "Point", "coordinates": [106.886, -6.199]}, "properties": {"name": "Hoka Hoka Bento ", "street": " nil ", "number": " 0"}}
,{"type": "Feature", "geometry": {"type": "Point", "coordinates": [106.886, -6.199]}, "properties": {"name": "Pizza Hut ", "street": " nil ", "number": " 0"}}
,{"type": "Feature", "geometry": {"type": "Point", "coordinates": [106.886, -6.2]}, "properties": {"name": "Dunkin' Donuts ", "street": " nil ", "number": " 0"}}
,{"type": "Feature", "geometry": {"type": "Point", "coordinates": [106.886, -6.198]}, "properties": {"name": "Jessy Bread ", "street": " nil ", "number": " 0"}}
,{"type": "Feature", "geometry": {"type": "Point", "coordinates": [106.886, -6.2]}, "properties": {"name": "Apotik Rini ", "street": " Jalan Balai Pustaka Timur ", "number": " No.10-11"}}
,{"type": "Feature", "geometry": {"type": "Point", "coordinates": [106.886, -6.201]}, "properties": {"name": "Ayam Balphuss ", "street": " nil ", "number": " 0"}}
,{"type": "Feature", "geometry": {"type": "Point", "coordinates": [106.886, -6.201]}, "properties": {"name": "Riung Tenda ", "street": " nil ", "number": " 0"}}
,{"type": "Feature", "geometry": {"type": "Point", "coordinates": [106.886, -6.197]}, "properties": {"name": "Ayam Bakar Gilimanuk ", "street": " nil ", "number": " 0"}}
,{"type": "Feature", "geometry": {"type": "Point", "coordinates": [106.886, -6.201]}, "properties": {"name": "Ikan Bakar Banyuwangi ", "street": " nil ", "number": " 0"}}
,{"type": "Feature", "geometry": {"type": "Point", "coordinates": [106.944, -6.287]}, "properties": {"name": "Superindo ", "street": " nil ", "number": " 0"}}
,{"type": "Feature", "geometry": {"type": "Point", "coordinates": [106.859, -6.358]}, "properties": {"name": "Pasar Palsigunung ", "street": " nil ", "number": " 0"}}
,{"type": "Feature", "geometry": {"type": "Point", "coordinates": [106.935, -6.246]}, "properties": {"name": "7-Eleven Pondok Kelapa ", "street": " Jalan Pondok Kelapa Raya ", "number": " Blok F1 No.09"}}
,{"type": "Feature", "geometry": {"type": "Point", "coordinates": [106.934, -6.243]}, "properties": {"name": "Salira ", "street": " nil ", "number": " 0"}}
,{"type": "Feature", "geometry": {"type": "Point", "coordinates": [106.934, -6.243]}, "properties": {"name": "Alfa Express Pondok Kelapa ", "street": " nil ", "number": " 0"}}
,{"type": "Feature", "geometry": {"type": "Point", "coordinates": [106.936, -6.249]}, "properties": {"name": "Burger N Grill Kalimalang ", "street": " nil ", "number": " 0"}}
,{"type": "Feature", "geometry": {"type": "Point", "coordinates": [106.934, -6.244]}, "properties": {"name": "Pizza Hut Pondok Kelapa ", "street": " nil ", "number": " 0"}}
,{"type": "Feature", "geometry": {"type": "Point", "coordinates": [106.847, -6.236]}, "properties": {"name": "7-Eleven ", "street": " nil ", "number": " 0"}}
,{"type": "Feature", "geometry": {"type": "Point", "coordinates": [106.855, -6.225]}, "properties": {"name": "Dunkin' Donuts Tebet ", "street": " nil ", "number": " 0"}}
,{"type": "Feature", "geometry": {"type": "Point", "coordinates": [106.833, -6.221]}, "properties": {"name": "Cafe Al Tahrir ", "street": " nil ", "number": " 0"}}
,{"type": "Feature", "geometry": {"type": "Point", "coordinates": [106.833, -6.222]}, "properties": {"name": "Dim Sum Inc ", "street": " nil ", "number": " 0"}}
,{"type": "Feature", "geometry": {"type": "Point", "coordinates": [106.833, -6.222]}, "properties": {"name": "Heartz Chicken Buffet ", "street": " nil ", "number": " 0"}}
,{"type": "Feature", "geometry": {"type": "Point", "coordinates": [106.833, -6.222]}, "properties": {"name": "Ko he Noor ", "street": " nil ", "number": " 0"}}
,{"type": "Feature", "geometry": {"type": "Point", "coordinates": [106.833, -6.222]}, "properties": {"name": "de Resto ", "street": " nil ", "number": " 0"}}
,{"type": "Feature", "geometry": {"type": "Point", "coordinates": [106.833, -6.222]}, "properties": {"name": "Bakmi GM ", "street": " nil ", "number": " 0"}}
,{"type": "Feature", "geometry": {"type": "Point", "coordinates": [106.835, -6.218]}, "properties": {"name": "Alex Pizza e Pasta ", "street": " nil ", "number": " 0"}}
,{"type": "Feature", "geometry": {"type": "Point", "coordinates": [106.835, -6.218]}, "properties": {"name": "Allegra Bistro and Bar ", "street": " nil ", "number": " 0"}}
,{"type": "Feature", "geometry": {"type": "Point", "coordinates": [106.835, -6.218]}, "properties": {"name": "Body Shop ", "street": " nil ", "number": " 0"}}
,{"type": "Feature", "geometry": {"type": "Point", "coordinates": [106.835, -6.218]}, "properties": {"name": "Caho Mung Qui Khach ", "street": " nil ", "number": " 0"}}
,{"type": "Feature", "geometry": {"type": "Point", "coordinates": [106.835, -6.218]}, "properties": {"name": "Daily Bread Bakery and Cafe ", "street": " nil ", "number": " 0"}}
,{"type": "Feature", "geometry": {"type": "Point", "coordinates": [106.835, -6.218]}, "properties": {"name": "Dapur Melayu ", "street": " nil ", "number": " 0"}}
,{"type": "Feature", "geometry": {"type": "Point", "coordinates": [106.835, -6.219]}, "properties": {"name": "E Corner ", "street": " nil ", "number": " 0"}}
,{"type": "Feature", "geometry": {"type": "Point", "coordinates": [106.835, -6.218]}, "properties": {"name": "Ho Lung Sechan Cuisine ", "street": " nil ", "number": " 0"}}
,{"type": "Feature", "geometry": {"type": "Point", "coordinates": [106.835, -6.218]}, "properties": {"name": "Kopi Luwak ", "street": " nil ", "number": " 0"}}
,{"type": "Feature", "geometry": {"type": "Point", "coordinates": [106.835, -6.218]}, "properties": {"name": "Madam Kwok ", "street": " nil ", "number": " 0"}}
,{"type": "Feature", "geometry": {"type": "Point", "coordinates": [106.835, -6.218]}, "properties": {"name": "Mangotree Bistro ", "street": " nil ", "number": " 0"}}
,{"type": "Feature", "geometry": {"type": "Point", "coordinates": [106.835, -6.218]}, "properties": {"name": "Moodz Gastro Bar ", "street": " nil ", "number": " 0"}}
,{"type": "Feature", "geometry": {"type": "Point", "coordinates": [106.835, -6.218]}, "properties": {"name": "Pandav Coffee ", "street": " nil ", "number": " 0"}}
,{"type": "Feature", "geometry": {"type": "Point", "coordinates": [106.835, -6.218]}, "properties": {"name": "Starbucks ", "street": " nil ", "number": " 0"}}
,{"type": "Feature", "geometry": {"type": "Point", "coordinates": [106.835, -6.218]}, "properties": {"name": "Talaga ", "street": " nil ", "number": " 0"}}
,{"type": "Feature", "geometry": {"type": "Point", "coordinates": [106.835, -6.218]}, "properties": {"name": "Tgrill ", "street": " nil ", "number": " 0"}}
,{"type": "Feature", "geometry": {"type": "Point", "coordinates": [106.835, -6.218]}, "properties": {"name": "Usselsspring ", "street": " nil ", "number": " 0"}}
,{"type": "Feature", "geometry": {"type": "Point", "coordinates": [106.838, -6.219]}, "properties": {"name": "&quot;Devista&quot; Laundry ", "street": " nil ", "number": " 0"}}
,{"type": "Feature", "geometry": {"type": "Point", "coordinates": [106.84, -6.22]}, "properties": {"name": "&quot;King Londre&quot; Laundry ", "street": " nil ", "number": " 0"}}
,{"type": "Feature", "geometry": {"type": "Point", "coordinates": [106.84, -6.219]}, "properties": {"name": "&quot;Mitra Setia&quot; Binatu ", "street": " nil ", "number": " 0"}}
,{"type": "Feature", "geometry": {"type": "Point", "coordinates": [106.839, -6.219]}, "properties": {"name": "&quot;Mitra&quot; Laundry ", "street": " nil ", "number": " 0"}}
,{"type": "Feature", "geometry": {"type": "Point", "coordinates": [106.838, -6.219]}, "properties": {"name": "&quot;Superindah&quot; Laundry and Dry Clening ", "street": " nil ", "number": " 0"}}
,{"type": "Feature", "geometry": {"type": "Point", "coordinates": [106.838, -6.218]}, "properties": {"name": "Q-Ta Laundry ", "street": " nil ", "number": " 0"}}
,{"type": "Feature", "geometry": {"type": "Point", "coordinates": [106.975, -6.194]}, "properties": {"name": "KFC Harapan Indah ", "street": " nil ", "number": " 0"}}
,{"type": "Feature", "geometry": {"type": "Point", "coordinates": [106.975, -6.194]}, "properties": {"name": "McDonalds Harapan Indah ", "street": " nil ", "number": " 0"}}
,{"type": "Feature", "geometry": {"type": "Point", "coordinates": [106.841, -6.242]}, "properties": {"name": "Bank Danamon ", "street": " nil ", "number": " 0"}}
,{"type": "Feature", "geometry": {"type": "Point", "coordinates": [106.831, -6.368]}, "properties": {"name": "Shelter Pondok Cina ", "street": " nil ", "number": " 0"}}
,{"type": "Feature", "geometry": {"type": "Point", "coordinates": [106.831, -6.362]}, "properties": {"name": "Shelter FISIP ", "street": " nil ", "number": " 0"}}
,{"type": "Feature", "geometry": {"type": "Point", "coordinates": [106.831, -6.361]}, "properties": {"name": "Shelter Stasiun UI ", "street": " nil ", "number": " 0"}}
,{"type": "Feature", "geometry": {"type": "Point", "coordinates": [106.831, -6.366]}, "properties": {"name": "Shelter MUI ", "street": " nil ", "number": " 0"}}
,{"type": "Feature", "geometry": {"type": "Point", "coordinates": [106.834, -6.162]}, "properties": {"name": "Sui Sen ", "street": " nil ", "number": " 0"}}
,{"type": "Feature", "geometry": {"type": "Point", "coordinates": [106.898, -6.16]}, "properties": {"name": "Home ", "street": " Kelapa Gadong ", "number": " N18 Vila Gading Indah"}}
,{"type": "Feature", "geometry": {"type": "Point", "coordinates": [106.853, -6.224]}, "properties": {"name": "Indomaret KH Abdul Syafii ", "street": " KH Abdul Syafii ", "number": " 0"}}
,{"type": "Feature", "geometry": {"type": "Point", "coordinates": [106.854, -6.224]}, "properties": {"name": "Dunkin' Donuts ", "street": " KH Abdul Syafi'ie ", "number": " 0"}}
,{"type": "Feature", "geometry": {"type": "Point", "coordinates": [106.852, -6.224]}, "properties": {"name": "Mamink Daeng Tata ", "street": " KH Abdul Syafii ", "number": " 0"}}
,{"type": "Feature", "geometry": {"type": "Point", "coordinates": [106.883, -6.197]}, "properties": {"name": "Sederhana ", "street": " nil ", "number": " 0"}}
,{"type": "Feature", "geometry": {"type": "Point", "coordinates": [106.964, -6.259]}, "properties": {"name": "Jamblang ", "street": " nil ", "number": " 0"}}
,{"type": "Feature", "geometry": {"type": "Point", "coordinates": [106.97, -6.249]}, "properties": {"name": "Nuansa Musik 2 ", "street": " nil ", "number": " 0"}}
,{"type": "Feature", "geometry": {"type": "Point", "coordinates": [106.831, -6.233]}, "properties": {"name": "PEPeNERO ", "street": " nil ", "number": " 0"}}
,{"type": "Feature", "geometry": {"type": "Point", "coordinates": [106.93, -6.301]}, "properties": {"name": "Musholah ", "street": " nil ", "number": " 0"}}
,{"type": "Feature", "geometry": {"type": "Point", "coordinates": [106.834, -6.224]}, "properties": {"name": "The Westin Jakarta ", "street": " nil ", "number": " 0"}}
,{"type": "Feature", "geometry": {"type": "Point", "coordinates": [106.886, -6.221]}, "properties": {"name": "Alfamart ", "street": " nil ", "number": " 0"}}
,{"type": "Feature", "geometry": {"type": "Point", "coordinates": [106.886, -6.221]}, "properties": {"name": "Indomaret ", "street": " nil ", "number": " 0"}}
,{"type": "Feature", "geometry": {"type": "Point", "coordinates": [106.85, -6.221]}, "properties": {"name": "Manggarai Selatan ", "street": " nil ", "number": " 0"}}
,{"type": "Feature", "geometry": {"type": "Point", "coordinates": [106.849, -6.194]}, "properties": {"name": "CIMB Niaga ", "street": " nil ", "number": " 0"}}
,{"type": "Feature", "geometry": {"type": "Point", "coordinates": [106.848, -6.194]}, "properties": {"name": "BNI 46 ", "street": " nil ", "number": " 0"}}
,{"type": "Feature", "geometry": {"type": "Point", "coordinates": [106.941, -6.196]}, "properties": {"name": "Catering Fenania ", "street": " Penggilingan Elok ", "number": " Blok A4 No.13"}}
,{"type": "Feature", "geometry": {"type": "Point", "coordinates": [106.933, -6.305]}, "properties": {"name": "Padang Reastaurant ", "street": " nil ", "number": " 0"}}
,{"type": "Feature", "geometry": {"type": "Point", "coordinates": [106.863, -6.173]}, "properties": {"name": "ACE Hardware ", "street": " nil ", "number": " 0"}}
,{"type": "Feature", "geometry": {"type": "Point", "coordinates": [106.863, -6.172]}, "properties": {"name": "C One ", "street": " nil ", "number": " 0"}}
,{"type": "Feature", "geometry": {"type": "Point", "coordinates": [106.856, -6.228]}, "properties": {"name": "Rumah Dijual ", "street": " nil ", "number": " 0"}}
,{"type": "Feature", "geometry": {"type": "Point", "coordinates": [106.856, -6.227]}, "properties": {"name": "Konsorsium Reformasi Hukum Nasional ", "street": " Tebet Utara 2 ", "number": " 13"}}
,{"type": "Feature", "geometry": {"type": "Point", "coordinates": [106.856, -6.225]}, "properties": {"name": "CIMB Niaga ", "street": " KH Abdul Syafi'ie ", "number": " 0"}}
,{"type": "Feature", "geometry": {"type": "Point", "coordinates": [106.855, -6.228]}, "properties": {"name": "Endorse ", "street": " nil ", "number": " 0"}}
,{"type": "Feature", "geometry": {"type": "Point", "coordinates": [106.855, -6.228]}, "properties": {"name": "Rava House ", "street": " Tebet Utara 4C ", "number": " 9"}}
,{"type": "Feature", "geometry": {"type": "Point", "coordinates": [106.855, -6.228]}, "properties": {"name": "Musketeers ", "street": " Tebet Utara 1A ", "number": " 6"}}
,{"type": "Feature", "geometry": {"type": "Point", "coordinates": [106.855, -6.228]}, "properties": {"name": "Kebab Baba Rafi ", "street": " Tebet Utara Dalam ", "number": " 5"}}
,{"type": "Feature", "geometry": {"type": "Point", "coordinates": [106.855, -6.227]}, "properties": {"name": "Bakul TUkul ", "street": " Tebet Utara Dalam ", "number": " 0"}}
,{"type": "Feature", "geometry": {"type": "Point", "coordinates": [106.855, -6.227]}, "properties": {"name": "Nasi Bebek ", "street": " nil ", "number": " 0"}}
,{"type": "Feature", "geometry": {"type": "Point", "coordinates": [106.855, -6.227]}, "properties": {"name": "Nouia Brand ", "street": " Tebet Utara 3G ", "number": " 0"}}
,{"type": "Feature", "geometry": {"type": "Point", "coordinates": [106.855, -6.226]}, "properties": {"name": "Ayam Panggang Rawamangun ", "street": " Tebet Utara Dalam ", "number": " 0"}}
,{"type": "Feature", "geometry": {"type": "Point", "coordinates": [106.846, -6.243]}, "properties": {"name": "ADRA Indonesia ", "street": " Letjen MT Haryono ", "number": " Kav 4-5"}}
,{"type": "Feature", "geometry": {"type": "Point", "coordinates": [106.963, -6.306]}, "properties": {"name": "Villa Jatirasa ", "street": " nil ", "number": " 0"}}
,{"type": "Feature", "geometry": {"type": "Point", "coordinates": [106.95, -6.312]}, "properties": {"name": "Komplek Satwika Permai (Telkom) ", "street": " nil ", "number": " 0"}}
,{"type": "Feature", "geometry": {"type": "Point", "coordinates": [106.952, -6.313]}, "properties": {"name": "Indomaret ", "street": " nil ", "number": " 0"}}
,{"type": "Feature", "geometry": {"type": "Point", "coordinates": [106.951, -6.327]}, "properties": {"name": "Komplek Asabri Indah ", "street": " nil ", "number": " 0"}}
,{"type": "Feature", "geometry": {"type": "Point", "coordinates": [106.955, -6.33]}, "properties": {"name": "Taman Jatisari Permai ", "street": " nil ", "number": " 0"}}
,{"type": "Feature", "geometry": {"type": "Point", "coordinates": [106.95, -6.334]}, "properties": {"name": "Komplek Danamon ", "street": " nil ", "number": " 0"}}
,{"type": "Feature", "geometry": {"type": "Point", "coordinates": [106.954, -6.335]}, "properties": {"name": "Komplek BCA ", "street": " nil ", "number": " 0"}}
,{"type": "Feature", "geometry": {"type": "Point", "coordinates": [106.948, -6.35]}, "properties": {"name": "Komplek Bumi Dirgantara ", "street": " nil ", "number": " 0"}}
,{"type": "Feature", "geometry": {"type": "Point", "coordinates": [106.947, -6.349]}, "properties": {"name": "Masjid Khusnul Khotimah ", "street": " nil ", "number": " 0"}}
,{"type": "Feature", "geometry": {"type": "Point", "coordinates": [106.947, -6.348]}, "properties": {"name": "Indomaret ", "street": " nil ", "number": " 0"}}
,{"type": "Feature", "geometry": {"type": "Point", "coordinates": [106.948, -6.347]}, "properties": {"name": "Alfamart ", "street": " nil ", "number": " 0"}}
,{"type": "Feature", "geometry": {"type": "Point", "coordinates": [106.954, -6.344]}, "properties": {"name": "Bumi Perkemahan Bekasi ", "street": " nil ", "number": " 0"}}
,{"type": "Feature", "geometry": {"type": "Point", "coordinates": [106.946, -6.335]}, "properties": {"name": "Al Hidayah ", "street": " nil ", "number": " 0"}}
,{"type": "Feature", "geometry": {"type": "Point", "coordinates": [106.952, -6.334]}, "properties": {"name": "Nurul Huda ", "street": " nil ", "number": " 0"}}
,{"type": "Feature", "geometry": {"type": "Point", "coordinates": [106.95, -6.327]}, "properties": {"name": "Asabri Indah ", "street": " nil ", "number": " 0"}}
,{"type": "Feature", "geometry": {"type": "Point", "coordinates": [106.953, -6.329]}, "properties": {"name": "Babusalam ", "street": " nil ", "number": " 0"}}
,{"type": "Feature", "geometry": {"type": "Point", "coordinates": [106.958, -6.326]}, "properties": {"name": "Masjid Jami Al Awabin ", "street": " nil ", "number": " 0"}}
,{"type": "Feature", "geometry": {"type": "Point", "coordinates": [106.947, -6.326]}, "properties": {"name": "Indomaret ", "street": " nil ", "number": " 0"}}
,{"type": "Feature", "geometry": {"type": "Point", "coordinates": [106.954, -6.332]}, "properties": {"name": "Indomaret ", "street": " nil ", "number": " 0"}}
,{"type": "Feature", "geometry": {"type": "Point", "coordinates": [106.954, -6.333]}, "properties": {"name": "Alfamart ", "street": " nil ", "number": " 0"}}
,{"type": "Feature", "geometry": {"type": "Point", "coordinates": [106.952, -6.337]}, "properties": {"name": "Indomaret ", "street": " nil ", "number": " 0"}}
,{"type": "Feature", "geometry": {"type": "Point", "coordinates": [106.924, -6.365]}, "properties": {"name": "Pasar Kranggan ", "street": " nil ", "number": " 0"}}
,{"type": "Feature", "geometry": {"type": "Point", "coordinates": [106.926, -6.347]}, "properties": {"name": "RS Jatisampurna ", "street": " nil ", "number": " 0"}}
,{"type": "Feature", "geometry": {"type": "Point", "coordinates": [106.975, -6.323]}, "properties": {"name": "Pasar Pocong ", "street": " nil ", "number": " 0"}}
,{"type": "Feature", "geometry": {"type": "Point", "coordinates": [106.95, -6.303]}, "properties": {"name": "Pamahan ", "street": " nil ", "number": " 0"}}
,{"type": "Feature", "geometry": {"type": "Point", "coordinates": [106.945, -6.341]}, "properties": {"name": "Pondok Sate Jatisari ", "street": " nil ", "number": " 0"}}
,{"type": "Feature", "geometry": {"type": "Point", "coordinates": [106.946, -6.334]}, "properties": {"name": "Alfamart ", "street": " nil ", "number": " 0"}}
,{"type": "Feature", "geometry": {"type": "Point", "coordinates": [106.944, -6.332]}, "properties": {"name": "Pondok Indah Jatisari ", "street": " nil ", "number": " 0"}}
,{"type": "Feature", "geometry": {"type": "Point", "coordinates": [106.946, -6.329]}, "properties": {"name": "Dapur Betawi ", "street": " nil ", "number": " 0"}}
,{"type": "Feature", "geometry": {"type": "Point", "coordinates": [106.934, -6.306]}, "properties": {"name": "Pasar Kecapi ", "street": " nil ", "number": " 0"}}
,{"type": "Feature", "geometry": {"type": "Point", "coordinates": [106.961, -6.319]}, "properties": {"name": "Komplek Puri Nusapala ", "street": " nil ", "number": " 0"}}
,{"type": "Feature", "geometry": {"type": "Point", "coordinates": [106.96, -6.322]}, "properties": {"name": "Komplek Puri Nusapala ", "street": " nil ", "number": " 0"}}
,{"type": "Feature", "geometry": {"type": "Point", "coordinates": [106.963, -6.322]}, "properties": {"name": "Komplek Vila Mahkota Pesona ", "street": " nil ", "number": " 0"}}
,{"type": "Feature", "geometry": {"type": "Point", "coordinates": [106.956, -6.317]}, "properties": {"name": "Komplek Sapta Pesona ", "street": " nil ", "number": " 0"}}
,{"type": "Feature", "geometry": {"type": "Point", "coordinates": [106.94, -6.312]}, "properties": {"name": "KOMPLEK PURI GADING ", "street": " nil ", "number": " 0"}}
,{"type": "Feature", "geometry": {"type": "Point", "coordinates": [106.971, -6.317]}, "properties": {"name": "Saung Apung ", "street": " nil ", "number": " 0"}}
,{"type": "Feature", "geometry": {"type": "Point", "coordinates": [106.966, -6.319]}, "properties": {"name": "SPBU Bojongkulur ", "street": " Jalan Raya Parpostel ", "number": " 0"}}
,{"type": "Feature", "geometry": {"type": "Point", "coordinates": [106.961, -6.316]}, "properties": {"name": "Komplek Mandosi Permai ", "street": " nil ", "number": " 0"}}
,{"type": "Feature", "geometry": {"type": "Point", "coordinates": [106.954, -6.308]}, "properties": {"name": "Gedung St. Nahanson Parapat ", "street": " nil ", "number": " 0"}}
,{"type": "Feature", "geometry": {"type": "Point", "coordinates": [106.956, -6.306]}, "properties": {"name": "Komsen Akuarium ", "street": " nil ", "number": " 0"}}
,{"type": "Feature", "geometry": {"type": "Point", "coordinates": [106.959, -6.295]}, "properties": {"name": "McDonald's Jati Asih Bekasi ", "street": " bunderan jatiasih ", "number": " 0"}}
,{"type": "Feature", "geometry": {"type": "Point", "coordinates": [106.964, -6.294]}, "properties": {"name": "Kelurahan Jatiasih ", "street": " nil ", "number": " 0"}}
,{"type": "Feature", "geometry": {"type": "Point", "coordinates": [106.96, -6.293]}, "properties": {"name": "Restoran Pizza Hut - Komsen Jatiasih Bekasi ", "street": " Jalan Raya Jati Asih No.13, Jatiasih, Bekasi, Kota BksJatiasih ", "number": " 0"}}
,{"type": "Feature", "geometry": {"type": "Point", "coordinates": [106.963, -6.294]}, "properties": {"name": "Indomaret ", "street": " nil ", "number": " 0"}}
,{"type": "Feature", "geometry": {"type": "Point", "coordinates": [106.965, -6.292]}, "properties": {"name": "Kecamatan Jatiasih ", "street": " nil ", "number": " 0"}}
,{"type": "Feature", "geometry": {"type": "Point", "coordinates": [106.964, -6.293]}, "properties": {"name": "Koramil Jatiasih ", "street": " nil ", "number": " 0"}}
,{"type": "Feature", "geometry": {"type": "Point", "coordinates": [106.966, -6.279]}, "properties": {"name": "Komplek Pondok Surya Mandala ", "street": " nil ", "number": " 0"}}
,{"type": "Feature", "geometry": {"type": "Point", "coordinates": [106.974, -6.286]}, "properties": {"name": "Perumahan Pondok Mitra Lestari ", "street": " nil ", "number": " 0"}}
,{"type": "Feature", "geometry": {"type": "Point", "coordinates": [106.953, -6.285]}, "properties": {"name": "Komplek Graha Indah ", "street": " nil ", "number": " 0"}}
,{"type": "Feature", "geometry": {"type": "Point", "coordinates": [106.951, -6.289]}, "properties": {"name": "Komplek Bumi Nasio Indah ", "street": " nil ", "number": " 0"}}
,{"type": "Feature", "geometry": {"type": "Point", "coordinates": [106.951, -6.293]}, "properties": {"name": "Komplek Angkasa Puri ", "street": " nil ", "number": " 0"}}
,{"type": "Feature", "geometry": {"type": "Point", "coordinates": [106.962, -6.291]}, "properties": {"name": "Komplek Pemda Jatiasih ", "street": " nil ", "number": " 0"}}
,{"type": "Feature", "geometry": {"type": "Point", "coordinates": [106.966, -6.288]}, "properties": {"name": "Komplek Pemda Jatiasih ", "street": " nil ", "number": " 0"}}
,{"type": "Feature", "geometry": {"type": "Point", "coordinates": [106.968, -6.282]}, "properties": {"name": "Komplek Coca-Cola ", "street": " nil ", "number": " 0"}}
,{"type": "Feature", "geometry": {"type": "Point", "coordinates": [106.971, -6.296]}, "properties": {"name": "Komplek Kemang IFI Graha ", "street": " nil ", "number": " 0"}}
,{"type": "Feature", "geometry": {"type": "Point", "coordinates": [106.971, -6.301]}, "properties": {"name": "Komplek Pondokgede Permai ", "street": " nil ", "number": " 0"}}
,{"type": "Feature", "geometry": {"type": "Point", "coordinates": [106.949, -6.32]}, "properties": {"name": "Nurul A'la ", "street": " nil ", "number": " 0"}}
,{"type": "Feature", "geometry": {"type": "Point", "coordinates": [106.949, -6.32]}, "properties": {"name": "Indomaret ", "street": " nil ", "number": " 0"}}
,{"type": "Feature", "geometry": {"type": "Point", "coordinates": [106.949, -6.32]}, "properties": {"name": "Alfamaret ", "street": " nil ", "number": " 0"}}
,{"type": "Feature", "geometry": {"type": "Point", "coordinates": [106.95, -6.32]}, "properties": {"name": "Puskesmas Jatiluhur ", "street": " nil ", "number": " 0"}}
,{"type": "Feature", "geometry": {"type": "Point", "coordinates": [106.951, -6.32]}, "properties": {"name": "Kelurahan Jatiluhur ", "street": " nil ", "number": " 0"}}
,{"type": "Feature", "geometry": {"type": "Point", "coordinates": [106.95, -6.317]}, "properties": {"name": "Dolly ", "street": " nil ", "number": " 0"}}
,{"type": "Feature", "geometry": {"type": "Point", "coordinates": [106.938, -6.283]}, "properties": {"name": "Komplek Duta Indah ", "street": " nil ", "number": " 0"}}
,{"type": "Feature", "geometry": {"type": "Point", "coordinates": [106.938, -6.28]}, "properties": {"name": "Komplek Intan Lestari ", "street": " nil ", "number": " 0"}}
,{"type": "Feature", "geometry": {"type": "Point", "coordinates": [106.938, -6.276]}, "properties": {"name": "De Sanctuary ", "street": " nil ", "number": " 0"}}
,{"type": "Feature", "geometry": {"type": "Point", "coordinates": [106.942, -6.27]}, "properties": {"name": "Perum Dosen IKIP ", "street": " nil ", "number": " 0"}}
,{"type": "Feature", "geometry": {"type": "Point", "coordinates": [106.945, -6.283]}, "properties": {"name": "Jati Kramat Indah 1 ", "street": " nil ", "number": " 0"}}
,{"type": "Feature", "geometry": {"type": "Point", "coordinates": [106.947, -6.275]}, "properties": {"name": "Jati Kramat Indah 2 ", "street": " nil ", "number": " 0"}}
,{"type": "Feature", "geometry": {"type": "Point", "coordinates": [106.949, -6.286]}, "properties": {"name": "Alfamidi ", "street": " nil ", "number": " 0"}}
,{"type": "Feature", "geometry": {"type": "Point", "coordinates": [106.971, -6.279]}, "properties": {"name": "Komplek Mayor ", "street": " nil ", "number": " 0"}}
,{"type": "Feature", "geometry": {"type": "Point", "coordinates": [106.967, -6.286]}, "properties": {"name": "Al-Fatah ", "street": " nil ", "number": " 0"}}
,{"type": "Feature", "geometry": {"type": "Point", "coordinates": [106.968, -6.284]}, "properties": {"name": "Klinik Mawar ", "street": " nil ", "number": " 0"}}
,{"type": "Feature", "geometry": {"type": "Point", "coordinates": [106.968, -6.283]}, "properties": {"name": "Ar-Rahmah ", "street": " nil ", "number": " 0"}}
,{"type": "Feature", "geometry": {"type": "Point", "coordinates": [106.965, -6.295]}, "properties": {"name": "Pertigaan Pasar Rebo ", "street": " nil ", "number": " 0"}}
,{"type": "Feature", "geometry": {"type": "Point", "coordinates": [106.966, -6.294]}, "properties": {"name": "HKBP Jatiasih ", "street": " nil ", "number": " 0"}}
,{"type": "Feature", "geometry": {"type": "Point", "coordinates": [106.96, -6.293]}, "properties": {"name": "Pertigaan Komsen ", "street": " nil ", "number": " 0"}}
,{"type": "Feature", "geometry": {"type": "Point", "coordinates": [106.96, -6.293]}, "properties": {"name": "Mushala Pospol Jatiasih ", "street": " nil ", "number": " 0"}}
,{"type": "Feature", "geometry": {"type": "Point", "coordinates": [106.958, -6.31]}, "properties": {"name": "Sakura Regency ", "street": " nil ", "number": " 0"}}
,{"type": "Feature", "geometry": {"type": "Point", "coordinates": [106.946, -6.355]}, "properties": {"name": "Asrama POLRI Jatirangga ", "street": " nil ", "number": " 0"}}
,{"type": "Feature", "geometry": {"type": "Point", "coordinates": [106.944, -6.347]}, "properties": {"name": "Marketing Karya Makmur ", "street": " nil ", "number": " 0"}}
,{"type": "Feature", "geometry": {"type": "Point", "coordinates": [106.946, -6.348]}, "properties": {"name": "Cluster Bali 1 ", "street": " nil ", "number": " 0"}}
,{"type": "Feature", "geometry": {"type": "Point", "coordinates": [106.95, -6.346]}, "properties": {"name": "Cluster Bali 2 ", "street": " nil ", "number": " 0"}}
,{"type": "Feature", "geometry": {"type": "Point", "coordinates": [106.948, -6.346]}, "properties": {"name": "Klinik Devina Medika ", "street": " nil ", "number": " 0"}}
,{"type": "Feature", "geometry": {"type": "Point", "coordinates": [106.95, -6.343]}, "properties": {"name": "Klinik Avia Medika ", "street": " nil ", "number": " 0"}}
,{"type": "Feature", "geometry": {"type": "Point", "coordinates": [106.954, -6.334]}, "properties": {"name": "Cluster Heliconia ", "street": " nil ", "number": " 0"}}
,{"type": "Feature", "geometry": {"type": "Point", "coordinates": [106.941, -6.32]}, "properties": {"name": "Baitul Haq ", "street": " nil ", "number": " 0"}}
,{"type": "Feature", "geometry": {"type": "Point", "coordinates": [106.941, -6.324]}, "properties": {"name": "Alam Raya 1, Puri Gading ", "street": " nil ", "number": " 0"}}
,{"type": "Feature", "geometry": {"type": "Point", "coordinates": [106.939, -6.323]}, "properties": {"name": "Alam Raya 2, Puri Gading ", "street": " nil ", "number": " 0"}}
,{"type": "Feature", "geometry": {"type": "Point", "coordinates": [106.939, -6.319]}, "properties": {"name": "Villa Tampaksiring, Puri Gading ", "street": " nil ", "number": " 0"}}
,{"type": "Feature", "geometry": {"type": "Point", "coordinates": [106.941, -6.319]}, "properties": {"name": "Villa Carita, Puri Gading ", "street": " nil ", "number": " 0"}}
,{"type": "Feature", "geometry": {"type": "Point", "coordinates": [106.939, -6.316]}, "properties": {"name": "Villa Kintamani, Puri Gading ", "street": " nil ", "number": " 0"}}
,{"type": "Feature", "geometry": {"type": "Point", "coordinates": [106.941, -6.314]}, "properties": {"name": "Villa Ubud, Puri Gading ", "street": " nil ", "number": " 0"}}
,{"type": "Feature", "geometry": {"type": "Point", "coordinates": [106.939, -6.313]}, "properties": {"name": "Villa Legian, Puri Gading ", "street": " nil ", "number": " 0"}}
,{"type": "Feature", "geometry": {"type": "Point", "coordinates": [106.94, -6.31]}, "properties": {"name": "Alam Besakih, Puri Gading ", "street": " nil ", "number": " 0"}}
,{"type": "Feature", "geometry": {"type": "Point", "coordinates": [106.934, -6.314]}, "properties": {"name": "Green Park Residence ", "street": " nil ", "number": " 0"}}
,{"type": "Feature", "geometry": {"type": "Point", "coordinates": [106.958, -6.364]}, "properties": {"name": "KOTA WISATA ", "street": " nil ", "number": " 0"}}
,{"type": "Feature", "geometry": {"type": "Point", "coordinates": [106.964, -6.294]}, "properties": {"name": "Jatiasih ", "street": " nil ", "number": " 0"}}
,{"type": "Feature", "geometry": {"type": "Point", "coordinates": [106.971, -6.308]}, "properties": {"name": "Villa Nusa Indah 1 ", "street": " nil ", "number": " 0"}}
,{"type": "Feature", "geometry": {"type": "Point", "coordinates": [106.972, -6.32]}, "properties": {"name": "Villa Nusa Indah 2 ", "street": " nil ", "number": " 0"}}
,{"type": "Feature", "geometry": {"type": "Point", "coordinates": [106.975, -6.327]}, "properties": {"name": "Bumi Mutiara ", "street": " nil ", "number": " 0"}}
,{"type": "Feature", "geometry": {"type": "Point", "coordinates": [106.966, -6.325]}, "properties": {"name": "Sakura Regency 2 ", "street": " nil ", "number": " 0"}}
,{"type": "Feature", "geometry": {"type": "Point", "coordinates": [106.965, -6.332]}, "properties": {"name": "Villa Nusa Indah 3 ", "street": " nil ", "number": " 0"}}
,{"type": "Feature", "geometry": {"type": "Point", "coordinates": [106.969, -6.34]}, "properties": {"name": "Villa Nusa Indah 5 ", "street": " nil ", "number": " 0"}}
,{"type": "Feature", "geometry": {"type": "Point", "coordinates": [106.949, -6.33]}, "properties": {"name": "Woodhill Residence ", "street": " nil ", "number": " 0"}}
,{"type": "Feature", "geometry": {"type": "Point", "coordinates": [106.948, -6.335]}, "properties": {"name": "Green Hill ", "street": " nil ", "number": " 0"}}
,{"type": "Feature", "geometry": {"type": "Point", "coordinates": [106.84, -6.277]}, "properties": {"name": "Circle K ", "street": " nil ", "number": " 0"}}
,{"type": "Feature", "geometry": {"type": "Point", "coordinates": [106.84, -6.279]}, "properties": {"name": "FamilyMart ", "street": " Jl. Pejaten Raya ", "number": " No.45A, RT.4/RW.6"}}
,{"type": "Feature", "geometry": {"type": "Point", "coordinates": [106.839, -6.279]}, "properties": {"name": "Seven eleven ", "street": " nil ", "number": " 0"}}
,{"type": "Feature", "geometry": {"type": "Point", "coordinates": [106.835, -6.28]}, "properties": {"name": "Alfamart ", "street": " nil ", "number": " 0"}}
,{"type": "Feature", "geometry": {"type": "Point", "coordinates": [106.847, -6.194]}, "properties": {"name": "FM Kitchen ", "street": " nil ", "number": " 0"}}
,{"type": "Feature", "geometry": {"type": "Point", "coordinates": [106.846, -6.195]}, "properties": {"name": "Excelso Express ", "street": " nil ", "number": " 0"}}
,{"type": "Feature", "geometry": {"type": "Point", "coordinates": [106.844, -6.197]}, "properties": {"name": "Dunkin Donuts ", "street": " Jalan Kimia ", "number": " 0"}}
,{"type": "Feature", "geometry": {"type": "Point", "coordinates": [106.848, -6.197]}, "properties": {"name": "Bank Mandiri KCP Jakarta RSCM ", "street": " Jalan Pangerang Diponegoro ", "number": " 0"}}
,{"type": "Feature", "geometry": {"type": "Point", "coordinates": [106.841, -6.298]}, "properties": {"name": "Alfamart ", "street": " nil ", "number": " 0"}}
,{"type": "Feature", "geometry": {"type": "Point", "coordinates": [106.84, -6.298]}, "properties": {"name": "Jambo Kupi ", "street": " nil ", "number": " 0"}}
,{"type": "Feature", "geometry": {"type": "Point", "coordinates": [106.831, -6.286]}, "properties": {"name": "Seven Eleven ", "street": " nil ", "number": " 0"}}
,{"type": "Feature", "geometry": {"type": "Point", "coordinates": [106.831, -6.286]}, "properties": {"name": "Circle K ", "street": " nil ", "number": " 0"}}
,{"type": "Feature", "geometry": {"type": "Point", "coordinates": [106.838, -6.185]}, "properties": {"name": "ThinkrCreative ", "street": " Jakarta Pusat ", "number": " 0"}}
,{"type": "Feature", "geometry": {"type": "Point", "coordinates": [106.858, -6.226]}, "properties": {"name": "The Cake Storage ", "street": " KH Abdul Syafi'ie ", "number": " 0"}}
,{"type": "Feature", "geometry": {"type": "Point", "coordinates": [106.951, -6.335]}, "properties": {"name": "Komplek BCA ", "street": " nil ", "number": " 0"}}
,{"type": "Feature", "geometry": {"type": "Point", "coordinates": [106.949, -6.334]}, "properties": {"name": "Al Hikmah ", "street": " nil ", "number": " 0"}}
,{"type": "Feature", "geometry": {"type": "Point", "coordinates": [106.953, -6.328]}, "properties": {"name": "Roni Tenda ", "street": " nil ", "number": " 0"}}
,{"type": "Feature", "geometry": {"type": "Point", "coordinates": [106.953, -6.329]}, "properties": {"name": "Mas Thole, Bakso &amp; Mie Ayam ", "street": " nil ", "number": " 0"}}
,{"type": "Feature", "geometry": {"type": "Point", "coordinates": [106.958, -6.332]}, "properties": {"name": "Taman Firdaus X ", "street": " nil ", "number": " 0"}}
,{"type": "Feature", "geometry": {"type": "Point", "coordinates": [106.957, -6.331]}, "properties": {"name": "MA Sirojul Munir ", "street": " nil ", "number": " 0"}}
,{"type": "Feature", "geometry": {"type": "Point", "coordinates": [106.954, -6.336]}, "properties": {"name": "Masjid TPU ", "street": " nil ", "number": " 0"}}
,{"type": "Feature", "geometry": {"type": "Point", "coordinates": [106.954, -6.332]}, "properties": {"name": "Pojok Makmur ", "street": " nil ", "number": " 0"}}
,{"type": "Feature", "geometry": {"type": "Point", "coordinates": [106.954, -6.329]}, "properties": {"name": "Pos Security ", "street": " nil ", "number": " 0"}}
,{"type": "Feature", "geometry": {"type": "Point", "coordinates": [106.953, -6.331]}, "properties": {"name": "Pos Security ", "street": " nil ", "number": " 0"}}
,{"type": "Feature", "geometry": {"type": "Point", "coordinates": [106.953, -6.332]}, "properties": {"name": "Mushalla ", "street": " nil ", "number": " 0"}}
,{"type": "Feature", "geometry": {"type": "Point", "coordinates": [106.955, -6.332]}, "properties": {"name": "Jatisari Residence ", "street": " nil ", "number": " 0"}}
,{"type": "Feature", "geometry": {"type": "Point", "coordinates": [106.956, -6.333]}, "properties": {"name": "Komplek PKPU ", "street": " nil ", "number": " 0"}}
,{"type": "Feature", "geometry": {"type": "Point", "coordinates": [106.957, -6.332]}, "properties": {"name": "Sirojul Munir ", "street": " nil ", "number": " 0"}}
,{"type": "Feature", "geometry": {"type": "Point", "coordinates": [106.957, -6.332]}, "properties": {"name": "MI Sirojul Munir ", "street": " nil ", "number": " 0"}}
,{"type": "Feature", "geometry": {"type": "Point", "coordinates": [106.969, -6.234]}, "properties": {"name": "Rumah Yudistira ", "street": " Jalan Bintara Raya ", "number": " 0"}}
,{"type": "Feature", "geometry": {"type": "Point", "coordinates": [106.971, -6.33]}, "properties": {"name": "Masjid Al Amin ", "street": " nil ", "number": " 0"}}
,{"type": "Feature", "geometry": {"type": "Point", "coordinates": [106.97, -6.331]}, "properties": {"name": "Puskesmas Bojong Kulur ", "street": " nil ", "number": " 0"}}
,{"type": "Feature", "geometry": {"type": "Point", "coordinates": [106.904, -6.221]}, "properties": {"name": "Ghash Cloud ", "street": " Duren Sawit Raya ", "number": " 2"}}
,{"type": "Feature", "geometry": {"type": "Point", "coordinates": [106.834, -6.219]}, "properties": {"name": "Bluegrass Bar &amp; Grill ", "street": " HR Rasuna Said ", "number": " 0"}}
,{"type": "Feature", "geometry": {"type": "Point", "coordinates": [106.831, -6.366]}, "properties": {"name": "Masjid Universitas Indonesia ", "street": " nil ", "number": " 0"}}
,{"type": "Feature", "geometry": {"type": "Point", "coordinates": [106.833, -6.361]}, "properties": {"name": "ayam penyet margonda ", "street": " nil ", "number": " 0"}}
,{"type": "Feature", "geometry": {"type": "Point", "coordinates": [106.83, -6.184]}, "properties": {"name": "Melly's Garden Bar ", "street": " nil ", "number": " 0"}}
,{"type": "Feature", "geometry": {"type": "Point", "coordinates": [106.831, -6.254]}, "properties": {"name": "Kopi Oey ", "street": " nil ", "number": " 0"}}
,{"type": "Feature", "geometry": {"type": "Point", "coordinates": [106.838, -6.295]}, "properties": {"name": "Toko Material ", "street": " nil ", "number": " 0"}}
,{"type": "Feature", "geometry": {"type": "Point", "coordinates": [106.838, -6.285]}, "properties": {"name": "Indomaret ", "street": " nil ", "number": " 0"}}
,{"type": "Feature", "geometry": {"type": "Point", "coordinates": [106.838, -6.285]}, "properties": {"name": "Holland Bakkery Jati Padang ", "street": " Ragunan Raya ", "number": " 26"}}
,{"type": "Feature", "geometry": {"type": "Point", "coordinates": [106.831, -6.254]}, "properties": {"name": "Indomaret ", "street": " nil ", "number": " 0"}}
,{"type": "Feature", "geometry": {"type": "Point", "coordinates": [106.842, -6.253]}, "properties": {"name": "Yed Kupi ", "street": " nil ", "number": " 0"}}
,{"type": "Feature", "geometry": {"type": "Point", "coordinates": [106.841, -6.254]}, "properties": {"name": "seven eleven ", "street": " nil ", "number": " 0"}}
,{"type": "Feature", "geometry": {"type": "Point", "coordinates": [106.864, -6.242]}, "properties": {"name": "Tebet Green ", "street": " nil ", "number": " 0"}}
,{"type": "Feature", "geometry": {"type": "Point", "coordinates": [106.966, -6.233]}, "properties": {"name": "Bank BNI ", "street": " nil ", "number": " 0"}}
,{"type": "Feature", "geometry": {"type": "Point", "coordinates": [106.897, -6.151]}, "properties": {"name": "PT Filtagreen Global ", "street": " nil ", "number": " 0"}}
,{"type": "Feature", "geometry": {"type": "Point", "coordinates": [106.838, -6.191]}, "properties": {"name": "Hotel Alia Cikini ", "street": " Jl. Cikini Raya ", "number": " 32"}}
,{"type": "Feature", "geometry": {"type": "Point", "coordinates": [106.838, -6.191]}, "properties": {"name": "Camden Bar ", "street": " Jalan Cikini Raya 2 ", "number": " No. 1"}}
,{"type": "Feature", "geometry": {"type": "Point", "coordinates": [106.834, -6.188]}, "properties": {"name": "Gondia International Guesthouse ", "street": " Gondangdia Kecil ", "number": " 22"}}
,{"type": "Feature", "geometry": {"type": "Point", "coordinates": [106.881, -6.209]}, "properties": {"name": "Indomaret ", "street": " Gading Raya ", "number": " 0"}}
,{"type": "Feature", "geometry": {"type": "Point", "coordinates": [106.842, -6.292]}, "properties": {"name": "Honda ", "street": " nil ", "number": " 0"}}
,{"type": "Feature", "geometry": {"type": "Point", "coordinates": [106.837, -6.301]}, "properties": {"name": "Cwie Mie Malang ", "street": " nil ", "number": " 0"}}
,{"type": "Feature", "geometry": {"type": "Point", "coordinates": [106.833, -6.286]}, "properties": {"name": "Metro Cut ", "street": " nil ", "number": " 0"}}
,{"type": "Feature", "geometry": {"type": "Point", "coordinates": [106.855, -6.174]}, "properties": {"name": "Galur ", "street": " Jl. Letjen Suprapto ", "number": " 0"}}
,{"type": "Feature", "geometry": {"type": "Point", "coordinates": [106.855, -6.2]}, "properties": {"name": "Matraman 1 ", "street": " Jalan Matraman Raya ", "number": " 0"}}
,{"type": "Feature", "geometry": {"type": "Point", "coordinates": [106.886, -6.291]}, "properties": {"name": "Pinang Ranti ", "street": " Jl. Pondok Gede ", "number": " RT.14/RW.2"}}
,{"type": "Feature", "geometry": {"type": "Point", "coordinates": [106.893, -6.175]}, "properties": {"name": "Pulo Mas ", "street": " Perintis Kemerdekaan ", "number": " 0"}}
,{"type": "Feature", "geometry": {"type": "Point", "coordinates": [106.87, -6.169]}, "properties": {"name": "RS Islam ", "street": " Jalan Letjen Suprapto ", "number": " 0"}}
,{"type": "Feature", "geometry": {"type": "Point", "coordinates": [106.884, -6.193]}, "properties": {"name": "Halte Sunan Giri ", "street": " Jalan Pemuda ", "number": " 0"}}
,{"type": "Feature", "geometry": {"type": "Point", "coordinates": [106.88, -6.193]}, "properties": {"name": "Halte UNJ ", "street": " Jalan Pemuda ", "number": " 0"}}
,{"type": "Feature", "geometry": {"type": "Point", "coordinates": [106.888, -6.193]}, "properties": {"name": "Halte Velodrome ", "street": " Jalan Pemuda ", "number": " 0"}}
,{"type": "Feature", "geometry": {"type": "Point", "coordinates": [106.83, -6.286]}, "properties": {"name": "Alfamart ", "street": " nil ", "number": " 0"}}
,{"type": "Feature", "geometry": {"type": "Point", "coordinates": [106.83, -6.286]}, "properties": {"name": "Indomaret ", "street": " nil ", "number": " 0"}}
,{"type": "Feature", "geometry": {"type": "Point", "coordinates": [106.831, -6.156]}, "properties": {"name": "Alfamart ", "street": " nil ", "number": " 0"}}
,{"type": "Feature", "geometry": {"type": "Point", "coordinates": [106.853, -6.364]}, "properties": {"name": "Al Muqarrabiin ", "street": " nil ", "number": " 0"}}
,{"type": "Feature", "geometry": {"type": "Point", "coordinates": [106.85, -6.365]}, "properties": {"name": "Kantor Kelurahan Tugu ", "street": " nil ", "number": " 0"}}
,{"type": "Feature", "geometry": {"type": "Point", "coordinates": [106.835, -6.217]}, "properties": {"name": "The Grove Suites ", "street": " nil ", "number": " 0"}}
,{"type": "Feature", "geometry": {"type": "Point", "coordinates": [106.849, -6.356]}, "properties": {"name": "Masjid Asy-Syuhada ", "street": " nil ", "number": " 0"}}
,{"type": "Feature", "geometry": {"type": "Point", "coordinates": [106.871, -6.17]}, "properties": {"name": "7Eleven ", "street": " nil ", "number": " 0"}}
,{"type": "Feature", "geometry": {"type": "Point", "coordinates": [106.901, -6.293]}, "properties": {"name": "OmiqloBadut ", "street": " Al Baidho Raya ", "number": " Rt.06/06 No.53"}}
,{"type": "Feature", "geometry": {"type": "Point", "coordinates": [106.978, -6.267]}, "properties": {"name": "Masjid Al-Awwabin ", "street": " Jalan Bacang Raya ", "number": " 0"}}
,{"type": "Feature", "geometry": {"type": "Point", "coordinates": [106.851, -6.357]}, "properties": {"name": "Agen Resmi Lulur Nature Organic : Ibu Nisa ", "street": " Jalan Alamanda ", "number": " RT 02/07 No.78"}}
,{"type": "Feature", "geometry": {"type": "Point", "coordinates": [106.979, -6.263]}, "properties": {"name": "Mesjid Nurul Muttaqin ", "street": " nil ", "number": " 0"}}
,{"type": "Feature", "geometry": {"type": "Point", "coordinates": [106.85, -6.305]}, "properties": {"name": "Indomaret ", "street": " nil ", "number": " 0"}}
,{"type": "Feature", "geometry": {"type": "Point", "coordinates": [106.963, -6.323]}, "properties": {"name": "Lapangan RT 09 Vila Mahkota Pesona ", "street": " nil ", "number": " Bojongkulur"}}
,{"type": "Feature", "geometry": {"type": "Point", "coordinates": [106.962, -6.323]}, "properties": {"name": "Ewok Steam and Cafe ", "street": " nil ", "number": " Vila Mahkota Pesona, Bojongkulur"}}
,{"type": "Feature", "geometry": {"type": "Point", "coordinates": [106.962, -6.321]}, "properties": {"name": "Masjid Sakinah Warrahmah ", "street": " Jalan Mahkota Raya ", "number": " Vila Mahkota Pesona, Bojongkulur"}}
,{"type": "Feature", "geometry": {"type": "Point", "coordinates": [106.963, -6.324]}, "properties": {"name": "Lapangan RT 10 Vila Mahkota Pesona ", "street": " nil ", "number": " Vila Mahkota Pesona, Bojongkulur"}}
,{"type": "Feature", "geometry": {"type": "Point", "coordinates": [106.963, -6.324]}, "properties": {"name": "Lapangan Bulutangkis RT 09 Vila Mahkota Pesona ", "street": " nil ", "number": " Vila Mahkota Pesona, Bojongkulur"}}
,{"type": "Feature", "geometry": {"type": "Point", "coordinates": [106.969, -6.323]}, "properties": {"name": "Kantor Kepala Desa Bojongkulur ", "street": " Jalan Raya Ciangsana ", "number": " 0"}}
,{"type": "Feature", "geometry": {"type": "Point", "coordinates": [106.831, -6.177]}, "properties": {"name": "7-Eleven ", "street": " nil ", "number": " 0"}}
,{"type": "Feature", "geometry": {"type": "Point", "coordinates": [106.969, -6.317]}, "properties": {"name": "SDN 01 Bojongkulur ", "street": " nil ", "number": " 0"}}
,{"type": "Feature", "geometry": {"type": "Point", "coordinates": [106.967, -6.324]}, "properties": {"name": "SDN 03 Bojongkulur ", "street": " nil ", "number": " 0"}}
,{"type": "Feature", "geometry": {"type": "Point", "coordinates": [106.968, -6.33]}, "properties": {"name": "SDN 02 Bojongkulur ", "street": " Jalan Raya Ciangsana ", "number": " 0"}}
,{"type": "Feature", "geometry": {"type": "Point", "coordinates": [106.969, -6.32]}, "properties": {"name": "Pos Polisi Vila Nusa Indah 2 Bojongkulur ", "street": " Jalan Raya Ciangsana ", "number": " 0"}}
,{"type": "Feature", "geometry": {"type": "Point", "coordinates": [106.921, -6.366]}, "properties": {"name": "SMAN 07 Kota Bekasi ", "street": " Jalan Lingkar Kota ", "number": " 0"}}
,{"type": "Feature", "geometry": {"type": "Point", "coordinates": [106.85, -6.305]}, "properties": {"name": "RM Padang ", "street": " nil ", "number": " 0"}}
,{"type": "Feature", "geometry": {"type": "Point", "coordinates": [106.851, -6.31]}, "properties": {"name": "Alfamart ", "street": " nil ", "number": " 0"}}
,{"type": "Feature", "geometry": {"type": "Point", "coordinates": [106.849, -6.174]}, "properties": {"name": "Gerbang Direktorat Topografi ", "street": " nil ", "number": " 0"}}
,{"type": "Feature", "geometry": {"type": "Point", "coordinates": [106.853, -6.257]}, "properties": {"name": "Kanpai Kedai Jepang ", "street": " Kalibata City Tower Cendana ", "number": " AL-01"}}
,{"type": "Feature", "geometry": {"type": "Point", "coordinates": [106.839, -6.308]}, "properties": {"name": "Alfamart ", "street": " nil ", "number": " 0"}}
,{"type": "Feature", "geometry": {"type": "Point", "coordinates": [106.845, -6.304]}, "properties": {"name": "Pisang Pasir ", "street": " nil ", "number": " 0"}}
,{"type": "Feature", "geometry": {"type": "Point", "coordinates": [106.856, -6.228]}, "properties": {"name": "Ayam Bakar Mas Mono ", "street": " nil ", "number": " 0"}}
,{"type": "Feature", "geometry": {"type": "Point", "coordinates": [106.852, -6.225]}, "properties": {"name": "Soto Gebrak! ", "street": " nil ", "number": " 0"}}
,{"type": "Feature", "geometry": {"type": "Point", "coordinates": [106.852, -6.224]}, "properties": {"name": "Sop Konro ", "street": " nil ", "number": " 0"}}
,{"type": "Feature", "geometry": {"type": "Point", "coordinates": [106.847, -6.241]}, "properties": {"name": "Bakmi Toko TIga ", "street": " nil ", "number": " 0"}}
,{"type": "Feature", "geometry": {"type": "Point", "coordinates": [106.847, -6.229]}, "properties": {"name": "Indomaret Point Tebet Supomo ", "street": " Jl. Prof Supomo ", "number": " 321"}}
,{"type": "Feature", "geometry": {"type": "Point", "coordinates": [106.86, -6.366]}, "properties": {"name": "Al Magfirah ", "street": " nil ", "number": " 0"}}
,{"type": "Feature", "geometry": {"type": "Point", "coordinates": [106.941, -6.256]}, "properties": {"name": "TA &amp; TK Al-Azhar Syifabudi Jatibening ", "street": " nil ", "number": " 0"}}
,{"type": "Feature", "geometry": {"type": "Point", "coordinates": [106.865, -6.168]}, "properties": {"name": "kantor RT .016/04, cempaka baru ", "street": " nil ", "number": " 0"}}
,{"type": "Feature", "geometry": {"type": "Point", "coordinates": [106.94, -6.241]}, "properties": {"name": "Perumahan Komplek Dki ", "street": " Jl. H. Naman/Komplek Dki, RT.9/RW.2, Pd. Klp., Duren Sawit ", "number": " 0"}}
,{"type": "Feature", "geometry": {"type": "Point", "coordinates": [106.897, -6.153]}, "properties": {"name": "Grand Whiz Hotel ", "street": " Jalan Bukit Gading Raya ", "number": " Kav. 1"}}
,{"type": "Feature", "geometry": {"type": "Point", "coordinates": [106.86, -6.176]}, "properties": {"name": "Huk Family Resto ", "street": " Jl. Cempaka Putih Raya , Cempaka Putih, Cemp. Putih Bar., Cemp. Putih ", "number": " 17"}}
,{"type": "Feature", "geometry": {"type": "Point", "coordinates": [106.836, -6.369]}, "properties": {"name": "wahid ", "street": " nil ", "number": " 0"}}
,{"type": "Feature", "geometry": {"type": "Point", "coordinates": [106.925, -6.343]}, "properties": {"name": "Labschool Cibubur ", "street": " Jl. Raya Hamkam Kampus Labschool, Jatiranggon, Jati Sampurna, ", "number": " No.15-20"}}
,{"type": "Feature", "geometry": {"type": "Point", "coordinates": [106.83, -6.185]}, "properties": {"name": "Bloem Steen Hostel ", "street": " nil ", "number": " 0"}}
,{"type": "Feature", "geometry": {"type": "Point", "coordinates": [106.907, -6.159]}, "properties": {"name": "\ud669\uae08\uc2dd\ub2f9 ", "street": " nil ", "number": " 0"}}
,{"type": "Feature", "geometry": {"type": "Point", "coordinates": [106.852, -6.16]}, "properties": {"name": "Patung Ondel-ondel ", "street": " nil ", "number": " 0"}}
,{"type": "Feature", "geometry": {"type": "Point", "coordinates": [106.849, -6.161]}, "properties": {"name": "Ketan Susu Kemayoran ", "street": " nil ", "number": " 0"}}
,{"type": "Feature", "geometry": {"type": "Point", "coordinates": [106.841, -6.159]}, "properties": {"name": "VW CENTER KEMAYORAN ", "street": " Jalan Angkasa ", "number": " 18"}}
,{"type": "Feature", "geometry": {"type": "Point", "coordinates": [106.885, -6.265]}, "properties": {"name": "A&amp;W-HALIM PERDANAKUSUMA ", "street": " Jl. Protokol Halim Perdana Kusuma ", "number": " No.15"}}
,{"type": "Feature", "geometry": {"type": "Point", "coordinates": [106.869, -6.258]}, "properties": {"name": "Pool Bus Primajasa Cililitan ", "street": " Jalan Mayjend. Sutoyo ", "number": " 32"}}
,{"type": "Feature", "geometry": {"type": "Point", "coordinates": [106.845, -6.233]}, "properties": {"name": "Pop! Hotel Tebet - Jakarta ", "street": " Jl. Prof. Dr. Supomo ", "number": " 29"}}
,{"type": "Feature", "geometry": {"type": "Point", "coordinates": [106.97, -6.29]}, "properties": {"name": "Masjid Baiturrahman ", "street": " Jalan Kalimantan ", "number": " 0"}}
,{"type": "Feature", "geometry": {"type": "Point", "coordinates": [106.968, -6.289]}, "properties": {"name": "Gedung Olahraga ", "street": " Jalan Swatantra 2 ", "number": " 0"}}
,{"type": "Feature", "geometry": {"type": "Point", "coordinates": [106.899, -6.225]}, "properties": {"name": "Apartemen Casablanca East Residences ", "street": " Jalan Pahlawan Revolusi ", "number": " No.12"}}
,{"type": "Feature", "geometry": {"type": "Point", "coordinates": [106.877, -6.172]}, "properties": {"name": "PT Gudang Garam Tbk ", "street": " Jl. Jenderal Ahmad Yani, Cempaka Putih Timur, Cempaka Putih, Daerah Khusus Ibukota Jakarta ", "number": " No. 75-79"}}
,{"type": "Feature", "geometry": {"type": "Point", "coordinates": [106.832, -6.232]}, "properties": {"name": "Menara Kadin ", "street": " Jalan HR Rasuna Said ", "number": " no. 2-3"}}
,{"type": "Feature", "geometry": {"type": "Point", "coordinates": [106.833, -6.227]}, "properties": {"name": "Menara Palma ", "street": " Jalan HR Rasuna Said ", "number": " X2 Kav 6"}}
,{"type": "Feature", "geometry": {"type": "Point", "coordinates": [106.884, -6.193]}, "properties": {"name": "Rabbani - Rawamangun ", "street": " Jl. Pemuda ", "number": " Nomor. 1 RT.8/RW.4"}}
,{"type": "Feature", "geometry": {"type": "Point", "coordinates": [106.972, -6.271]}, "properties": {"name": "Grand Galaxy Park ", "street": " Jl. Grand Galaxy Boulevard ", "number": " No.1"}}
,{"type": "Feature", "geometry": {"type": "Point", "coordinates": [106.833, -6.226]}, "properties": {"name": "Menara Cyber 2 ", "street": " Jl. H. R. Rasuna Said Blox X-5 ", "number": " No. 13"}}
,{"type": "Feature", "geometry": {"type": "Point", "coordinates": [106.905, -6.182]}, "properties": {"name": "Gading Icon Apartemen Rosewood Tower ", "street": " Jl Perintis Kemerdekaan ", "number": " Kav 99"}}
,{"type": "Feature", "geometry": {"type": "Point", "coordinates": [106.842, -6.24]}, "properties": {"name": "Hotel Bidakara Jakarta ", "street": " Jl. Jend. Gatot Subroto ", "number": " Kav. 71-73"}}
,{"type": "Feature", "geometry": {"type": "Point", "coordinates": [106.834, -6.172]}, "properties": {"name": "Hotel Borobudur Jakarta ", "street": " Jalan Lapangan Banteng Selatan ", "number": " No.1"}}
,{"type": "Feature", "geometry": {"type": "Point", "coordinates": [106.866, -6.263]}, "properties": {"name": "Fave Hotel PGC Cililitan ", "street": " Jl. Mayjen Sutoyo ", "number": " No.76"}}
,{"type": "Feature", "geometry": {"type": "Point", "coordinates": [106.926, -6.204]}, "properties": {"name": "East Park Apartment ", "street": " Jl. KRT Radjiman ", "number": " 0"}}
,{"type": "Feature", "geometry": {"type": "Point", "coordinates": [106.85, -6.195]}, "properties": {"name": "McDonald's Salemba ", "street": " Jl. Salemba Raya ", "number": " Kav. 31"}}
,{"type": "Feature", "geometry": {"type": "Point", "coordinates": [106.874, -6.245]}, "properties": {"name": "Hotel Dafam Teraskita ", "street": " Jl. MT Haryono Kav. 10A ", "number": " 0"}}
,{"type": "Feature", "geometry": {"type": "Point", "coordinates": [106.855, -6.228]}, "properties": {"name": "Comic Cafe ", "street": " Jalan Tebet Raya ", "number": " No.53D"}}
,{"type": "Feature", "geometry": {"type": "Point", "coordinates": [106.923, -6.228]}, "properties": {"name": "McDonald's - Duren Sawit ", "street": " Jl. Radin Inten II ", "number": " 0"}}
,{"type": "Feature", "geometry": {"type": "Point", "coordinates": [106.851, -6.225]}, "properties": {"name": "Cervino Apartment ", "street": " Jl. KH. Abdullah Syafi'ie Kav. 27 ", "number": " 0"}}
,{"type": "Feature", "geometry": {"type": "Point", "coordinates": [106.869, -6.237]}, "properties": {"name": "McDonald's Otista Raya ", "street": " Jalan Otto Iskandar Dinata ", "number": " Kav. 125-127"}}
,{"type": "Feature", "geometry": {"type": "Point", "coordinates": [106.857, -6.257]}, "properties": {"name": "Plaza Kalibata ", "street": " Jl. Kalibata Raya No.1 ", "number": " 0"}}
,{"type": "Feature", "geometry": {"type": "Point", "coordinates": [106.83, -6.184]}, "properties": {"name": "Melly's Garden Bar &amp; Resto ", "street": " Jl. Kebon Sirih Timur ", "number": " No 37-39"}}
,{"type": "Feature", "geometry": {"type": "Point", "coordinates": [106.842, -6.225]}, "properties": {"name": "Casagrande Residence Jakarta ", "street": " Jl. Kasablanca Raya ", "number": " No.88"}}
,{"type": "Feature", "geometry": {"type": "Point", "coordinates": [106.875, -6.188]}, "properties": {"name": "Green Pramuka City ", "street": " Jalan Jendral A. Yani, Rw. Sari, Cemp. Putih ", "number": " Kav. 49"}}
,{"type": "Feature", "geometry": {"type": "Point", "coordinates": [106.885, -6.302]}, "properties": {"name": "Green Terrace ", "street": " Jl. Pintu Utama 1, Taman Mini ", "number": " Blok D No. 5"}}
,{"type": "Feature", "geometry": {"type": "Point", "coordinates": [106.831, -6.233]}, "properties": {"name": "Menara Karya ", "street": " JL. H.R. Rasuna Said ", "number": " Kav 1-2"}}
,{"type": "Feature", "geometry": {"type": "Point", "coordinates": [106.881, -6.162]}, "properties": {"name": "PT. Astra Honda ", "street": " Jl. Laksda Yos Sudarso ", "number": " RT.2/RW.9"}}
,{"type": "Feature", "geometry": {"type": "Point", "coordinates": [106.835, -6.219]}, "properties": {"name": "Bakrie Tower Epicentrum ", "street": " Epicentrum Utama Raya, Jl. Rasuna Said ", "number": " 0"}}
,{"type": "Feature", "geometry": {"type": "Point", "coordinates": [106.837, -6.219]}, "properties": {"name": "Hotel Aston Rasuna ", "street": " Jl.HR Rasuna said ", "number": " 0"}}
,{"type": "Feature", "geometry": {"type": "Point", "coordinates": [106.891, -6.194]}, "properties": {"name": "Arion Mall ", "street": " Jl. Pemuda Kav. 3-4 ", "number": " 0"}}
,{"type": "Feature", "geometry": {"type": "Point", "coordinates": [106.873, -6.189]}, "properties": {"name": "Apartemen The Green Pramuka City ", "street": " Jalan Jendral A. Yani Kav 49 ", "number": " 0"}}
,{"type": "Feature", "geometry": {"type": "Point", "coordinates": [106.938, -6.171]}, "properties": {"name": "Rusun Griya Tipar Cakung (RGTC) ", "street": " Blok Cendana Komplek RGTC, Cakung Barat ", "number": " 0"}}
,{"type": "Feature", "geometry": {"type": "Point", "coordinates": [106.857, -6.194]}, "properties": {"name": "Kramat ", "street": " nil ", "number": " 0"}}
,{"type": "Feature", "geometry": {"type": "Point", "coordinates": [106.832, -6.369]}, "properties": {"name": "Pondok Cina ", "street": " Jl. Stasiun Pondok Cina ", "number": " No. 1"}}
,{"type": "Feature", "geometry": {"type": "Point", "coordinates": [106.834, -6.364]}, "properties": {"name": "Apartemen Margonda Residence ", "street": " Jl. Margonda Raya Kav. 462 - 465 ", "number": " 0"}}
,{"type": "Feature", "geometry": {"type": "Point", "coordinates": [106.869, -6.244]}, "properties": {"name": "M.T. Haryono Square ", "street": " Jl. MT Haryono ", "number": " RT.6/RW.12"}}
,{"type": "Feature", "geometry": {"type": "Point", "coordinates": [106.876, -6.165]}, "properties": {"name": "Apartemen Graha Cempaka Mas ", "street": " Jl. Letjen. Suprapto ", "number": " No. 1"}}
,{"type": "Feature", "geometry": {"type": "Point", "coordinates": [106.832, -6.36]}, "properties": {"name": "Universitas Indonesia ", "street": " Jalan Stasiun UI ", "number": " 0"}}
,{"type": "Feature", "geometry": {"type": "Point", "coordinates": [106.948, -6.205]}, "properties": {"name": "Sentra Timur Residence ", "street": " Jl. Sentra Primer Tim., Pulo Gebang, Cakung ", "number": " RW.6"}}
,{"type": "Feature", "geometry": {"type": "Point", "coordinates": [106.83, -6.215]}, "properties": {"name": "Setiabudi One ", "street": " Setiabudi One, Jl. Hr. Rasuna Said ", "number": " No.63"}}
,{"type": "Feature", "geometry": {"type": "Point", "coordinates": [106.893, -6.155]}, "properties": {"name": "Hypermart Kelapa Gading Trade Center ", "street": " Jl. Boulevard Bar. Raya ", "number": " 0"}}
,{"type": "Feature", "geometry": {"type": "Point", "coordinates": [106.844, -6.243]}, "properties": {"name": "Patung Dirgantara - Tugu Pancoran ", "street": " Jalan Gatot Subroto ", "number": " RT. 1/RW. 1"}}
,{"type": "Feature", "geometry": {"type": "Point", "coordinates": [106.877, -6.166]}, "properties": {"name": "ITC Cempaka Mas Main Entrance ", "street": " Jalan Letjen. R. Suprapto ", "number": " Kav. 1"}}
,{"type": "Feature", "geometry": {"type": "Point", "coordinates": [106.833, -6.161]}, "properties": {"name": "Pasar Jaya. PD ", "street": " JL. KH. Samanhudi ", "number": " 0"}}
,{"type": "Feature", "geometry": {"type": "Point", "coordinates": [106.842, -6.355]}, "properties": {"name": "Universitas Gunadarma Kampus E ", "street": " Jalan Akses UI ", "number": " 0"}}
,{"type": "Feature", "geometry": {"type": "Point", "coordinates": [106.834, -6.369]}, "properties": {"name": "Universitas Gunadarma Kampus D ", "street": " Jalan Raya Margonda ", "number": " No.100"}}
,{"type": "Feature", "geometry": {"type": "Point", "coordinates": [106.851, -6.253]}, "properties": {"name": "Perumahan DPR RI Kalibata ", "street": " Jalan DPR raya ", "number": " RT.12/RW.5"}}
,{"type": "Feature", "geometry": {"type": "Point", "coordinates": [106.831, -6.218]}, "properties": {"name": "Plaza 89 ", "street": " Jalan HR Rasuna Said ", "number": " Kav. X - 7 No.6"}}
,{"type": "Feature", "geometry": {"type": "Point", "coordinates": [106.873, -6.176]}, "properties": {"name": "Warunk Upnormal ", "street": " Jl. Cempaka Putih Raya ", "number": " No. 102"}}
,{"type": "Feature", "geometry": {"type": "Point", "coordinates": [106.831, -6.217]}, "properties": {"name": "Plaza Kuningan, Menara Selatan ", "street": " Jalan HR Rasuna Said ", "number": " 0"}}
,{"type": "Feature", "geometry": {"type": "Point", "coordinates": [106.877, -6.179]}, "properties": {"name": "Kalbis Institute ", "street": " Jl. Pulo Mas Selatan ", "number": " Kav. 22"}}
,{"type": "Feature", "geometry": {"type": "Point", "coordinates": [106.852, -6.257]}, "properties": {"name": "Kalibata City - Tower Jasmine ", "street": " Jalan Kalibata Raya, Rawajati ", "number": " 1"}}
,{"type": "Feature", "geometry": {"type": "Point", "coordinates": [106.869, -6.244]}, "properties": {"name": "MT Haryono Square (MTH Square) ", "street": " Jalan Otista Raya ", "number": " No. 390, Kav. 10"}}
,{"type": "Feature", "geometry": {"type": "Point", "coordinates": [106.834, -6.345]}, "properties": {"name": "KFC Lenteng Agung ", "street": " Jalan Raya Lenteng Agung ", "number": " Nomor 18"}}
,{"type": "Feature", "geometry": {"type": "Point", "coordinates": [106.831, -6.184]}, "properties": {"name": "MNC Tower Side Entrance ", "street": " Jalan Kebon Sirih Timur ", "number": " No.19"}}
,{"type": "Feature", "geometry": {"type": "Point", "coordinates": [106.844, -6.355]}, "properties": {"name": "McDonalds Kelapa Dua ", "street": " Jalan Akses UI ", "number": " No. 59"}}
,{"type": "Feature", "geometry": {"type": "Point", "coordinates": [106.884, -6.157]}, "properties": {"name": "Sunter Park View ", "street": " Jl. Laksamana Yos Sudarso, Sunter Jaya, Tanjung Priok ", "number": " 0"}}
,{"type": "Feature", "geometry": {"type": "Point", "coordinates": [106.91, -6.158]}, "properties": {"name": "HARRIS Hotel &amp; Conventions Kelapa Gading ", "street": " Jl. Bulevar Kelapa Gading Blok M ", "number": " 0"}}
,{"type": "Feature", "geometry": {"type": "Point", "coordinates": [106.969, -6.33]}, "properties": {"name": "Bumi Mutiara ", "street": " Jl. Bumi Mutiara ", "number": " 0"}}
,{"type": "Feature", "geometry": {"type": "Point", "coordinates": [106.85, -6.195]}, "properties": {"name": "KFC Salemba Jakarta ", "street": " Jalan Salemba Raya ", "number": " No. 29, RT. 001/06"}}
,{"type": "Feature", "geometry": {"type": "Point", "coordinates": [106.847, -6.188]}, "properties": {"name": "Kramat Sentiong ", "street": " Jl. Kramat Sentiong ", "number": " No.12A,RT.1/RW.7"}}
,{"type": "Feature", "geometry": {"type": "Point", "coordinates": [106.906, -6.16]}, "properties": {"name": "La Piazza ", "street": " Jl. Bulevar Kelapa Gading ", "number": " Blok M"}}
,{"type": "Feature", "geometry": {"type": "Point", "coordinates": [106.867, -6.24]}, "properties": {"name": "Jalan Tanjung Lengkong ", "street": " Tanjung Lengkong ", "number": " 0"}}
,{"type": "Feature", "geometry": {"type": "Point", "coordinates": [106.837, -6.188]}, "properties": {"name": "Whiz Hotel ", "street": " Jalan Cikini Raya ", "number": " Nomor 6"}}
,{"type": "Feature", "geometry": {"type": "Point", "coordinates": [106.83, -6.213]}, "properties": {"name": "Wisma Bakrie 2 ", "street": " Jalan HR Rasuna Said ", "number": " Kav B1"}}
,{"type": "Feature", "geometry": {"type": "Point", "coordinates": [106.871, -6.234]}, "properties": {"name": "Jalan Kebon Nanas Selatan II ", "street": " Jalan Kebon Nanas Selatan II ", "number": " 0"}}
,{"type": "Feature", "geometry": {"type": "Point", "coordinates": [106.852, -6.156]}, "properties": {"name": "Mediterania Boulevard Residences ", "street": " Jalan Benyamin Sueb ", "number": " Blok A1"}}
,{"type": "Feature", "geometry": {"type": "Point", "coordinates": [106.843, -6.247]}, "properties": {"name": "Amaris Hotel Pancoran ", "street": " Jl. Raya Pasar Minggu ", "number": " No.15"}}
,{"type": "Feature", "geometry": {"type": "Point", "coordinates": [106.837, -6.16]}, "properties": {"name": "Amaris Hotel Pasar Baru ", "street": " Jl. Pasar Baru Timur No.21 ", "number": " 0"}}
,{"type": "Feature", "geometry": {"type": "Point", "coordinates": [106.892, -6.153]}, "properties": {"name": "Whiz Prime Hotel ", "street": " Jl. Boulevard Bar. Raya ", "number": " Blok LA1 No.2"}}
,{"type": "Feature", "geometry": {"type": "Point", "coordinates": [106.908, -6.161]}, "properties": {"name": "Fave Hotel Jakarta Gading ", "street": " Jl. Gading Indah Raya ", "number": " No.8 Blok C-32"}}
,{"type": "Feature", "geometry": {"type": "Point", "coordinates": [106.836, -6.16]}, "properties": {"name": "Favehotel Pasar Baru ", "street": " Jl. K.H Samanhudi ", "number": " No. 26"}}
,{"type": "Feature", "geometry": {"type": "Point", "coordinates": [106.876, -6.167]}, "properties": {"name": "Holland Village ", "street": " Jl. Letjen R. Suprapto ", "number": " 0"}}
,{"type": "Feature", "geometry": {"type": "Point", "coordinates": [106.83, -6.157]}, "properties": {"name": "Superoti ", "street": " Gedung Training Center Matahari, Jl. A. Karang Anyar ", "number": " Nomor 27"}}
,{"type": "Feature", "geometry": {"type": "Point", "coordinates": [106.835, -6.218]}, "properties": {"name": "MMI Indonesia ", "street": " EPIWALK (Epicentrum Walk), Komplek Rasuna Epicentrum, Jl. Rasuna Said ", "number": " Building suite B-717"}}
,{"type": "Feature", "geometry": {"type": "Point", "coordinates": [106.83, -6.24]}, "properties": {"name": "DataComm ", "street": " Jl. Kapten Tendean ", "number": " Nomor 18A"}}
,{"type": "Feature", "geometry": {"type": "Point", "coordinates": [106.846, -6.183]}, "properties": {"name": "Rumah ", "street": " Jalan Kramat Pulo ", "number": " 56a"}}
,{"type": "Feature", "geometry": {"type": "Point", "coordinates": [106.835, -6.157]}, "properties": {"name": "Hotel Lautze Indah ", "street": " Jalan Lautze ", "number": " 24"}}
,{"type": "Feature", "geometry": {"type": "Point", "coordinates": [106.892, -6.152]}, "properties": {"name": "Mall of Indonesia (Main Entrance) ", "street": " Jalan Boulevard Barat Raya, Kelapa Gading, Jakarta Utara, Indonesia ", "number": " 0"}}
,{"type": "Feature", "geometry": {"type": "Point", "coordinates": [106.832, -6.299]},